{"type": "FeatureCollection", "features": [{"type": "Feature", "properties": {"id": "01011000", "name": "Allagash River near Allagash, Maine", "state": "ME", "drain_sqkm": 3186.844, "huc02": "01", "huc12": "010100020711", "has_data": true, "nsce": -0.42853, "cc": -0.21098, "rel_bias": -80.45116, "norm_bias": -69.42403, "rmse": 151.48039}, "geometry": {"type": "Point", "coordinates": [-69.07954, 47.06961]}}, {"type": "Feature", "properties": {"id": "01013500", "name": "Fish River near Fort Kent, Maine", "state": "ME", "drain_sqkm": 2252.696, "huc02": "01", "huc12": "010100030403", "has_data": false, "nsce": null, "cc": null, "rel_bias": null, "norm_bias": null, "rmse": null}, "geometry": {"type": "Point", "coordinates": [-68.58264, 47.23739]}}, {"type": "Feature", "properties": {"id": "01015800", "name": "Aroostook River near Masardis, Maine", "state": "ME", "drain_sqkm": 2313.755, "huc02": "01", "huc12": "010100040606", "has_data": true, "nsce": -0.23941, "cc": 0.70388, "rel_bias": -67.98557, "norm_bias": -56.53521, "rmse": 115.52909}, "geometry": {"type": "Point", "coordinates": [-68.37176, 46.523]}}, {"type": "Feature", "properties": {"id": "01016500", "name": "MACHIAS RIVER NEAR ASHLAND, ME", "state": "ME", "drain_sqkm": 847.7721, "huc02": "01", "huc12": "010100040806", "has_data": false, "nsce": null, "cc": null, "rel_bias": null, "norm_bias": null, "rmse": null}, "geometry": {"type": "Point", "coordinates": [-68.43479, 46.62831]}}, {"type": "Feature", "properties": {"id": "01017000", "name": "Aroostook River at Washburn, Maine", "state": "ME", "drain_sqkm": 4278.907, "huc02": "01", "huc12": "010100041202", "has_data": true, "nsce": -0.1628, "cc": 0.54572, "rel_bias": -16.73092, "norm_bias": -23.5353, "rmse": 200.22335}, "geometry": {"type": "Point", "coordinates": [-68.15719, 46.77729]}}, {"type": "Feature", "properties": {"id": "01017060", "name": "Hardwood Brook below Glidden Brk nr Caribou, Maine", "state": "ME", "drain_sqkm": 14.8644, "huc02": "01", "huc12": "010100041203", "has_data": false, "nsce": null, "cc": null, "rel_bias": null, "norm_bias": null, "rmse": null}, "geometry": {"type": "Point", "coordinates": [-67.98917, 46.78361]}}, {"type": "Feature", "properties": {"id": "01017290", "name": "Little Madawaska River at Caribou, Maine", "state": "ME", "drain_sqkm": 594.576, "huc02": "01", "huc12": "010100041307", "has_data": true, "nsce": 0.21109, "cc": 0.43955, "rel_bias": 209.66503, "norm_bias": 26.28717, "rmse": 25.09992}, "geometry": {"type": "Point", "coordinates": [-67.945, 46.88861]}}, {"type": "Feature", "properties": {"id": "01017550", "name": "Williams Brook at Phair, Maine", "state": "ME", "drain_sqkm": 10.0323, "huc02": "01", "huc12": "010100100201", "has_data": false, "nsce": null, "cc": null, "rel_bias": null, "norm_bias": null, "rmse": null}, "geometry": {"type": "Point", "coordinates": [-67.95306, 46.62806]}}, {"type": "Feature", "properties": {"id": "01017960", "name": "Meduxnekeag R above S Br Medux. R nr Houlton, ME", "state": "ME", "drain_sqkm": 226.2537, "huc02": "01", "huc12": "010100050303", "has_data": true, "nsce": 0.1009, "cc": 0.48469, "rel_bias": 145.13613, "norm_bias": -3.8342, "rmse": 9.75959}, "geometry": {"type": "Point", "coordinates": [-67.88139, 46.105]}}, {"type": "Feature", "properties": {"id": "01018000", "name": "Meduxnekeag River near Houlton, Maine", "state": "ME", "drain_sqkm": 450.4734, "huc02": "01", "huc12": "010100050307", "has_data": false, "nsce": null, "cc": null, "rel_bias": null, "norm_bias": null, "rmse": null}, "geometry": {"type": "Point", "coordinates": [-67.86663, 46.10492]}}, {"type": "Feature", "properties": {"id": "01018009", "name": "Pearce Brook at Route 1 at Houlton, Maine", "state": "ME", "drain_sqkm": 19.5192, "huc02": "01", "huc12": "010100050307", "has_data": false, "nsce": null, "cc": null, "rel_bias": null, "norm_bias": null, "rmse": null}, "geometry": {"type": "Point", "coordinates": [-67.84028, 46.11528]}}, {"type": "Feature", "properties": {"id": "01019000", "name": "Grand Lake Stream at Grand Lake Stream, Maine", "state": "ME", "drain_sqkm": 620.6238, "huc02": "01", "huc12": "010500010307", "has_data": true, "nsce": -0.82924, "cc": 0.38992, "rel_bias": -50.62234, "norm_bias": -39.15828, "rmse": 13.30747}, "geometry": {"type": "Point", "coordinates": [-67.7688, 45.17252]}}, {"type": "Feature", "properties": {"id": "01021200", "name": "DENNYS RIVER AT DENNYSVILLE, ME", "state": "ME", "drain_sqkm": 242.8407, "huc02": "01", "huc12": "010500040404", "has_data": false, "nsce": null, "cc": null, "rel_bias": null, "norm_bias": null, "rmse": null}, "geometry": {"type": "Point", "coordinates": [-67.24762, 44.90149]}}, {"type": "Feature", "properties": {"id": "01021470", "name": "Libby Brook near Northfield, Maine", "state": "ME", "drain_sqkm": 16.1001, "huc02": "01", "huc12": "010500020602", "has_data": false, "nsce": null, "cc": null, "rel_bias": null, "norm_bias": null, "rmse": null}, "geometry": {"type": "Point", "coordinates": [-67.725, 44.80083]}}, {"type": "Feature", "properties": {"id": "01021480", "name": "Old Stream near Wesley, Maine", "state": "ME", "drain_sqkm": 76.73849, "huc02": "01", "huc12": "010500020503", "has_data": false, "nsce": null, "cc": null, "rel_bias": null, "norm_bias": null, "rmse": null}, "geometry": {"type": "Point", "coordinates": [-67.73611, 44.93694]}}, {"type": "Feature", "properties": {"id": "01021500", "name": "Machias River at Whitneyville, Maine", "state": "ME", "drain_sqkm": 1184.14, "huc02": "01", "huc12": "010500020604", "has_data": false, "nsce": null, "cc": null, "rel_bias": null, "norm_bias": null, "rmse": null}, "geometry": {"type": "Point", "coordinates": [-67.52048, 44.72299]}}, {"type": "Feature", "properties": {"id": "01022260", "name": "Pleasant River near Epping, Maine", "state": "ME", "drain_sqkm": 161.9937, "huc02": "01", "huc12": "010500020902", "has_data": false, "nsce": null, "cc": null, "rel_bias": null, "norm_bias": null, "rmse": null}, "geometry": {"type": "Point", "coordinates": [-67.78722, 44.69778]}}, {"type": "Feature", "properties": {"id": "01022330", "name": "Narraguagus River at Deblois, Maine", "state": "ME", "drain_sqkm": 264.8124, "huc02": "01", "huc12": "010500021005", "has_data": false, "nsce": null, "cc": null, "rel_bias": null, "norm_bias": null, "rmse": null}, "geometry": {"type": "Point", "coordinates": [-68.01333, 44.74083]}}, {"type": "Feature", "properties": {"id": "01022500", "name": "Narraguagus River at Cherryfield, Maine", "state": "ME", "drain_sqkm": 573.6006, "huc02": "01", "huc12": "010500021005", "has_data": true, "nsce": 0.1095, "cc": 0.58113, "rel_bias": -3.0999, "norm_bias": -18.0454, "rmse": 19.02959}, "geometry": {"type": "Point", "coordinates": [-67.93524, 44.60797]}}, {"type": "Feature", "properties": {"id": "01023000", "name": "WEST BRANCH UNION RIVER AT AMHERST, ME", "state": "ME", "drain_sqkm": 385.0974, "huc02": "01", "huc12": "010500021205", "has_data": false, "nsce": null, "cc": null, "rel_bias": null, "norm_bias": null, "rmse": null}, "geometry": {"type": "Point", "coordinates": [-68.37202, 44.84024]}}, {"type": "Feature", "properties": {"id": "01027200", "name": "North Branch Penobscot River nr Pittston Farm, ME", "state": "ME", "drain_sqkm": 582.0489, "huc02": "01", "huc12": "010200010106", "has_data": true, "nsce": 0.02151, "cc": 0.46357, "rel_bias": 36.38143, "norm_bias": -12.73803, "rmse": 33.61481}, "geometry": {"type": "Point", "coordinates": [-69.99361, 45.93528]}}, {"type": "Feature", "properties": {"id": "01029200", "name": "Seboeis River near Shin Pond, Maine", "state": "ME", "drain_sqkm": 444.9492, "huc02": "01", "huc12": "010200020406", "has_data": true, "nsce": 0.01846, "cc": 0.5808, "rel_bias": 29.88025, "norm_bias": -9.65107, "rmse": 21.07805}, "geometry": {"type": "Point", "coordinates": [-68.63361, 46.14306]}}, {"type": "Feature", "properties": {"id": "01029500", "name": "East Branch Penobscot River at Grindstone, Maine", "state": "ME", "drain_sqkm": 2816.295, "huc02": "01", "huc12": "010200020507", "has_data": true, "nsce": -0.38268, "cc": 0.61024, "rel_bias": -64.85366, "norm_bias": -52.80537, "rmse": 134.65092}, "geometry": {"type": "Point", "coordinates": [-68.58949, 45.73027]}}, {"type": "Feature", "properties": {"id": "01030000", "name": "PENOBSCOT RIVER NEAR MATTAWAMKEAG, ME", "state": "ME", "drain_sqkm": 8732.993, "huc02": "01", "huc12": "010200050104", "has_data": false, "nsce": null, "cc": null, "rel_bias": null, "norm_bias": null, "rmse": null}, "geometry": {"type": "Point", "coordinates": [-68.40366, 45.56633]}}, {"type": "Feature", "properties": {"id": "01030500", "name": "Mattawamkeag River near Mattawamkeag, Maine", "state": "ME", "drain_sqkm": 3676.172, "huc02": "01", "huc12": "010200030704", "has_data": true, "nsce": -0.19192, "cc": 0.46446, "rel_bias": 3.80437, "norm_bias": -17.38943, "rmse": 157.3133}, "geometry": {"type": "Point", "coordinates": [-68.30596, 45.50097]}}, {"type": "Feature", "properties": {"id": "01031300", "name": "Piscataquis River at Blanchard, Maine", "state": "ME", "drain_sqkm": 304.3764, "huc02": "01", "huc12": "010200040111", "has_data": false, "nsce": null, "cc": null, "rel_bias": null, "norm_bias": null, "rmse": null}, "geometry": {"type": "Point", "coordinates": [-69.58389, 45.26722]}}, {"type": "Feature", "properties": {"id": "01031450", "name": "Kingsbury Stream at Abbot Village, Maine", "state": "ME", "drain_sqkm": 239.0922, "huc02": "01", "huc12": "010200040110", "has_data": true, "nsce": 0.10584, "cc": 0.48913, "rel_bias": 32.32872, "norm_bias": -24.51406, "rmse": 13.10485}, "geometry": {"type": "Point", "coordinates": [-69.45222, 45.18444]}}, {"type": "Feature", "properties": {"id": "01031500", "name": "Piscataquis River near Dover-Foxcroft, Maine", "state": "ME", "drain_sqkm": 769.0482, "huc02": "01", "huc12": "010200040203", "has_data": true, "nsce": 0.09152, "cc": 0.53835, "rel_bias": 135.45835, "norm_bias": 10.27747, "rmse": 37.28021}, "geometry": {"type": "Point", "coordinates": [-69.3147, 45.17501]}}, {"type": "Feature", "properties": {"id": "01031510", "name": "Black Stream near Dover-Foxcroft, Maine", "state": "ME", "drain_sqkm": 70.1046, "huc02": "01", "huc12": "010200040202", "has_data": false, "nsce": null, "cc": null, "rel_bias": null, "norm_bias": null, "rmse": null}, "geometry": {"type": "Point", "coordinates": [-69.23639, 45.15028]}}, {"type": "Feature", "properties": {"id": "01033000", "name": "SEBEC RIVER AT SEBEC, ME", "state": "ME", "drain_sqkm": 844.353, "huc02": "01", "huc12": "010200040312", "has_data": false, "nsce": null, "cc": null, "rel_bias": null, "norm_bias": null, "rmse": null}, "geometry": {"type": "Point", "coordinates": [-69.11173, 45.27026]}}, {"type": "Feature", "properties": {"id": "01033500", "name": "PLEASANT RIVER NEAR MILO, ME", "state": "ME", "drain_sqkm": 833.9643, "huc02": "01", "huc12": "010200040410", "has_data": false, "nsce": null, "cc": null, "rel_bias": null, "norm_bias": null, "rmse": null}, "geometry": {"type": "Point", "coordinates": [-69.00344, 45.28258]}}, {"type": "Feature", "properties": {"id": "01034000", "name": "Piscataquis River at Medford, Maine", "state": "ME", "drain_sqkm": 3011.229, "huc02": "01", "huc12": "010200040601", "has_data": true, "nsce": 0.07609, "cc": 0.51182, "rel_bias": 52.39158, "norm_bias": 0.95748, "rmse": 117.23237}, "geometry": {"type": "Point", "coordinates": [-68.86861, 45.26061]}}, {"type": "Feature", "properties": {"id": "01034500", "name": "Penobscot River at West Enfield, Maine", "state": "ME", "drain_sqkm": 17347.38, "huc02": "01", "huc12": "010200050401", "has_data": true, "nsce": -0.16188, "cc": 0.46149, "rel_bias": -14.05042, "norm_bias": -14.63129, "rmse": 488.66521}, "geometry": {"type": "Point", "coordinates": [-68.65138, 45.23618]}}, {"type": "Feature", "properties": {"id": "01035000", "name": "PASSADUMKEAG RIVER AT LOWELL, ME", "state": "ME", "drain_sqkm": 779.4081, "huc02": "01", "huc12": "010200050311", "has_data": false, "nsce": null, "cc": null, "rel_bias": null, "norm_bias": null, "rmse": null}, "geometry": {"type": "Point", "coordinates": [-68.47442, 45.18394]}}, {"type": "Feature", "properties": {"id": "01036500", "name": "KENDUSKEAG STREAM NEAR KENDUSKEAG, ME", "state": "ME", "drain_sqkm": 391.4991, "huc02": "01", "huc12": "010200050707", "has_data": false, "nsce": null, "cc": null, "rel_bias": null, "norm_bias": null, "rmse": null}, "geometry": {"type": "Point", "coordinates": [-68.88368, 44.89714]}}, {"type": "Feature", "properties": {"id": "01037380", "name": "Ducktrap River near Lincolnville, Maine", "state": "ME", "drain_sqkm": 39.0231, "huc02": "01", "huc12": "010500021903", "has_data": false, "nsce": null, "cc": null, "rel_bias": null, "norm_bias": null, "rmse": null}, "geometry": {"type": "Point", "coordinates": [-69.06083, 44.32917]}}, {"type": "Feature", "properties": {"id": "01038000", "name": "Sheepscot River at North Whitefield, Maine", "state": "ME", "drain_sqkm": 375.0849, "huc02": "01", "huc12": "010500030406", "has_data": true, "nsce": 0.30697, "cc": 0.64411, "rel_bias": 137.3345, "norm_bias": 9.66744, "rmse": 7.06651}, "geometry": {"type": "Point", "coordinates": [-69.59376, 44.22278]}}, {"type": "Feature", "properties": {"id": "01041000", "name": "KENNEBEC RIVER AT MOOSEHEAD, ME", "state": "ME", "drain_sqkm": 3293.256, "huc02": "01", "huc12": "010300010603", "has_data": false, "nsce": null, "cc": null, "rel_bias": null, "norm_bias": null, "rmse": null}, "geometry": {"type": "Point", "coordinates": [-69.71696, 45.58485]}}, {"type": "Feature", "properties": {"id": "01042500", "name": "Kennebec River at The Forks, Maine", "state": "ME", "drain_sqkm": 4124.36, "huc02": "01", "huc12": "010300010610", "has_data": true, "nsce": -0.56221, "cc": -0.17972, "rel_bias": -3.67564, "norm_bias": -21.49219, "rmse": 104.04883}, "geometry": {"type": "Point", "coordinates": [-69.96206, 45.33971]}}, {"type": "Feature", "properties": {"id": "01043500", "name": "DEAD RIVER NEAR DEAD RIVER, ME", "state": "ME", "drain_sqkm": 1343.69, "huc02": "01", "huc12": "010300020502", "has_data": true, "nsce": -0.01037, "cc": 0.33096, "rel_bias": 8.57459, "norm_bias": -6.29124, "rmse": 27.86782}, "geometry": {"type": "Point", "coordinates": [-70.19984, 45.23046]}}, {"type": "Feature", "properties": {"id": "01044550", "name": "Spencer Stream near Grand Falls, Maine", "state": "ME", "drain_sqkm": 499.7628, "huc02": "01", "huc12": "010300020406", "has_data": true, "nsce": -0.08306, "cc": 0.51337, "rel_bias": 7.99474, "norm_bias": -24.09516, "rmse": 26.07471}, "geometry": {"type": "Point", "coordinates": [-70.24167, 45.31361]}}, {"type": "Feature", "properties": {"id": "01045000", "name": "DEAD RIVER AT THE FORKS, ME", "state": "ME", "drain_sqkm": 2254.018, "huc02": "01", "huc12": "010300020506", "has_data": false, "nsce": null, "cc": null, "rel_bias": null, "norm_bias": null, "rmse": null}, "geometry": {"type": "Point", "coordinates": [-69.99019, 45.34906]}}, {"type": "Feature", "properties": {"id": "01046000", "name": "AUSTIN STREAM AT BINGHAM, ME", "state": "ME", "drain_sqkm": 243.1584, "huc02": "01", "huc12": "010300030203", "has_data": true, "nsce": 0.13498, "cc": 0.50135, "rel_bias": 73.3112, "norm_bias": -16.51284, "rmse": 10.8118}, "geometry": {"type": "Point", "coordinates": [-69.88077, 45.06519]}}, {"type": "Feature", "properties": {"id": "01046500", "name": "Kennebec River at Bingham, Maine", "state": "ME", "drain_sqkm": 7056.902, "huc02": "01", "huc12": "010300030301", "has_data": true, "nsce": -0.61011, "cc": 0.19405, "rel_bias": -43.41626, "norm_bias": -34.45762, "rmse": 162.25027}, "geometry": {"type": "Point", "coordinates": [-69.88551, 45.05205]}}, {"type": "Feature", "properties": {"id": "01047000", "name": "Carrabassett River near North Anson, Maine", "state": "ME", "drain_sqkm": 909.0972, "huc02": "01", "huc12": "010300030804", "has_data": true, "nsce": 0.112, "cc": 0.53864, "rel_bias": 88.13977, "norm_bias": 3.72578, "rmse": 48.27248}, "geometry": {"type": "Point", "coordinates": [-69.9551, 44.8692]}}, {"type": "Feature", "properties": {"id": "01047150", "name": "Kennebec River near Madison, Maine", "state": "ME", "drain_sqkm": 8433.685, "huc02": "01", "huc12": "010300031302", "has_data": true, "nsce": -0.18447, "cc": 0.22473, "rel_bias": 1.84676, "norm_bias": -6.36355, "rmse": 173.02175}, "geometry": {"type": "Point", "coordinates": [-69.88694, 44.77889]}}, {"type": "Feature", "properties": {"id": "01047200", "name": "Sandy River near Madrid, Maine", "state": "ME", "drain_sqkm": 65.646, "huc02": "01", "huc12": "010300030902", "has_data": false, "nsce": null, "cc": null, "rel_bias": null, "norm_bias": null, "rmse": null}, "geometry": {"type": "Point", "coordinates": [-70.48528, 44.85778]}}, {"type": "Feature", "properties": {"id": "01048000", "name": "Sandy River near Mercer, Maine", "state": "ME", "drain_sqkm": 1339.138, "huc02": "01", "huc12": "010300031206", "has_data": true, "nsce": 0.06269, "cc": 0.54502, "rel_bias": 47.66344, "norm_bias": -5.64905, "rmse": 61.96462}, "geometry": {"type": "Point", "coordinates": [-69.93759, 44.70817]}}, {"type": "Feature", "properties": {"id": "01048220", "name": "East Branch Wesserunsett Stream near Athens, Maine", "state": "ME", "drain_sqkm": 49.3893, "huc02": "01", "huc12": "010300031402", "has_data": false, "nsce": null, "cc": null, "rel_bias": null, "norm_bias": null, "rmse": null}, "geometry": {"type": "Point", "coordinates": [-69.65694, 44.9475]}}, {"type": "Feature", "properties": {"id": "01049000", "name": "Sebasticook River near Pittsfield, Maine", "state": "ME", "drain_sqkm": 1488.607, "huc02": "01", "huc12": "010300031904", "has_data": false, "nsce": null, "cc": null, "rel_bias": null, "norm_bias": null, "rmse": null}, "geometry": {"type": "Point", "coordinates": [-69.41382, 44.71678]}}, {"type": "Feature", "properties": {"id": "01049265", "name": "KENNEBEC RIVER AT NORTH SIDNEY, MAINE", "state": "ME", "drain_sqkm": 14014.81, "huc02": "01", "huc12": "010300032404", "has_data": true, "nsce": -0.1769, "cc": 0.34968, "rel_bias": 5.59607, "norm_bias": -8.00309, "rmse": 342.2289}, "geometry": {"type": "Point", "coordinates": [-69.68399, 44.47234]}}, {"type": "Feature", "properties": {"id": "01049500", "name": "Cobbosseecontee Stream at Gardiner, Maine", "state": "ME", "drain_sqkm": 561.3147, "huc02": "01", "huc12": "010300032309", "has_data": true, "nsce": 0.101, "cc": 0.61471, "rel_bias": 79.82277, "norm_bias": 4.10927, "rmse": 10.50471}, "geometry": {"type": "Point", "coordinates": [-69.77805, 44.2291]}}, {"type": "Feature", "properties": {"id": "01052500", "name": "Diamond River near Wentworth Location, NH", "state": "NH", "drain_sqkm": 383.8234, "huc02": "01", "huc12": "010400010405", "has_data": true, "nsce": 0.01765, "cc": 0.47742, "rel_bias": 20.98389, "norm_bias": -22.62952, "rmse": 27.95934}, "geometry": {"type": "Point", "coordinates": [-71.05749, 44.87739]}}, {"type": "Feature", "properties": {"id": "01053500", "name": "Androscoggin River at Errol, NH", "state": "NH", "drain_sqkm": 2701.495, "huc02": "01", "huc12": "010400010602", "has_data": true, "nsce": -0.40028, "cc": 0.27071, "rel_bias": -31.64481, "norm_bias": -24.04282, "rmse": 59.72832}, "geometry": {"type": "Point", "coordinates": [-71.12869, 44.78256]}}, {"type": "Feature", "properties": {"id": "01053600", "name": "Androscoggin River below Bog Brook at Cambridge NH", "state": "NH", "drain_sqkm": 3047.351, "huc02": "01", "huc12": "010400010602", "has_data": true, "nsce": -0.56309, "cc": 0.18384, "rel_bias": -36.94328, "norm_bias": -26.36697, "rmse": 73.80663}, "geometry": {"type": "Point", "coordinates": [-71.18139, 44.66611]}}, {"type": "Feature", "properties": {"id": "01054000", "name": "Androscoggin River near Gorham, NH", "state": "NH", "drain_sqkm": 3527.626, "huc02": "01", "huc12": "010400010606", "has_data": true, "nsce": -0.18069, "cc": 0.29185, "rel_bias": -4.17941, "norm_bias": -7.41935, "rmse": 76.12876}, "geometry": {"type": "Point", "coordinates": [-71.19018, 44.43579]}}, {"type": "Feature", "properties": {"id": "01054200", "name": "Wild River at Gilead, Maine", "state": "ME", "drain_sqkm": 180.981, "huc02": "01", "huc12": "010400020201", "has_data": false, "nsce": null, "cc": null, "rel_bias": null, "norm_bias": null, "rmse": null}, "geometry": {"type": "Point", "coordinates": [-70.97964, 44.39044]}}, {"type": "Feature", "properties": {"id": "01054300", "name": "Ellis River at South Andover, Maine", "state": "ME", "drain_sqkm": 337.7295, "huc02": "01", "huc12": "010400020305", "has_data": true, "nsce": 0.03717, "cc": 0.59267, "rel_bias": 36.5472, "norm_bias": -8.99799, "rmse": 16.01012}, "geometry": {"type": "Point", "coordinates": [-70.73302, 44.59324]}}, {"type": "Feature", "properties": {"id": "01054500", "name": "Androscoggin River at Rumford, Maine", "state": "ME", "drain_sqkm": 5349.329, "huc02": "01", "huc12": "010400020406", "has_data": true, "nsce": -0.08538, "cc": 0.29255, "rel_bias": 5.71846, "norm_bias": -4.48916, "rmse": 138.58791}, "geometry": {"type": "Point", "coordinates": [-70.54407, 44.55181]}}, {"type": "Feature", "properties": {"id": "01055000", "name": "Swift River near Roxbury, Maine", "state": "ME", "drain_sqkm": 250.641, "huc02": "01", "huc12": "010400020404", "has_data": true, "nsce": 0.0666, "cc": 0.50284, "rel_bias": -1.77628, "norm_bias": -27.00151, "rmse": 15.34069}, "geometry": {"type": "Point", "coordinates": [-70.58878, 44.64275]}}, {"type": "Feature", "properties": {"id": "01055500", "name": "Nezinscot River at Turner Center, Maine", "state": "ME", "drain_sqkm": 439.5051, "huc02": "01", "huc12": "010400020704", "has_data": true, "nsce": 0.12497, "cc": 0.68936, "rel_bias": -14.79704, "norm_bias": -25.12256, "rmse": 13.8014}, "geometry": {"type": "Point", "coordinates": [-70.22961, 44.26951]}}, {"type": "Feature", "properties": {"id": "01057000", "name": "Little Androscoggin River near South Paris, Maine", "state": "ME", "drain_sqkm": 190.9188, "huc02": "01", "huc12": "010400020902", "has_data": true, "nsce": -0.53991, "cc": null, "rel_bias": -99.10365, "norm_bias": -98.24989, "rmse": 9.33331}, "geometry": {"type": "Point", "coordinates": [-70.53968, 44.30399]}}, {"type": "Feature", "properties": {"id": "01058500", "name": "LITTLE ANDROSCOGGIN RIVER NEAR AUBURN, ME", "state": "ME", "drain_sqkm": 851.4333, "huc02": "01", "huc12": "010400020910", "has_data": false, "nsce": null, "cc": null, "rel_bias": null, "norm_bias": null, "rmse": null}, "geometry": {"type": "Point", "coordinates": [-70.27407, 44.06387]}}, {"type": "Feature", "properties": {"id": "01059000", "name": "Androscoggin River near Auburn, Maine", "state": "ME", "drain_sqkm": 8444.24, "huc02": "01", "huc12": "010400021005", "has_data": true, "nsce": -0.11236, "cc": 0.35757, "rel_bias": 6.47431, "norm_bias": -4.60577, "rmse": 206.4452}, "geometry": {"type": "Point", "coordinates": [-70.20801, 44.0723]}}, {"type": "Feature", "properties": {"id": "01059800", "name": "Collyer Brook near Gray, Maine", "state": "ME", "drain_sqkm": 35.3142, "huc02": "01", "huc12": "010600010202", "has_data": false, "nsce": null, "cc": null, "rel_bias": null, "norm_bias": null, "rmse": null}, "geometry": {"type": "Point", "coordinates": [-70.3166, 43.91789]}}, {"type": "Feature", "properties": {"id": "01060000", "name": "Royal River at Yarmouth, Maine", "state": "ME", "drain_sqkm": 364.8285, "huc02": "01", "huc12": "010600010206", "has_data": true, "nsce": -21.59587, "cc": 0.08313, "rel_bias": 433.52283, "norm_bias": -70.87428, "rmse": 74.20963}, "geometry": {"type": "Point", "coordinates": [-70.17827, 43.79915]}}, {"type": "Feature", "properties": {"id": "01064000", "name": "PRESUMPSCOT RIVER AT OUTLET OF SEBAGO LAKE, ME", "state": "ME", "drain_sqkm": 1145.668, "huc02": "01", "huc12": "010600010304", "has_data": false, "nsce": null, "cc": null, "rel_bias": null, "norm_bias": null, "rmse": null}, "geometry": {"type": "Point", "coordinates": [-70.44994, 43.81753]}}, {"type": "Feature", "properties": {"id": "01064118", "name": "Presumpscot River at Westbrook, Maine", "state": "ME", "drain_sqkm": 1554.034, "huc02": "01", "huc12": "010600010306", "has_data": true, "nsce": -108.13535, "cc": 0.24434, "rel_bias": 80.90371, "norm_bias": -58.17143, "rmse": 188.73255}, "geometry": {"type": "Point", "coordinates": [-70.34714, 43.687]}}, {"type": "Feature", "properties": {"id": "01064300", "name": "ELLIS RIVER NEAR JACKSON, NH", "state": "NH", "drain_sqkm": 27.4338, "huc02": "01", "huc12": "010600020105", "has_data": false, "nsce": null, "cc": null, "rel_bias": null, "norm_bias": null, "rmse": null}, "geometry": {"type": "Point", "coordinates": [-71.24924, 44.21896]}}, {"type": "Feature", "properties": {"id": "01064400", "name": "LUCY BROOK NEAR NORTH CONWAY, NH", "state": "NH", "drain_sqkm": 12.1707, "huc02": "01", "huc12": "010600020302", "has_data": false, "nsce": null, "cc": null, "rel_bias": null, "norm_bias": null, "rmse": null}, "geometry": {"type": "Point", "coordinates": [-71.17285, 44.07035]}}, {"type": "Feature", "properties": {"id": "01064500", "name": "Saco River near Conway, NH", "state": "NH", "drain_sqkm": 993.6964, "huc02": "01", "huc12": "010600020303", "has_data": true, "nsce": 0.09462, "cc": 0.54861, "rel_bias": 21.35469, "norm_bias": -9.67749, "rmse": 54.96627}, "geometry": {"type": "Point", "coordinates": [-71.09048, 43.99084]}}, {"type": "Feature", "properties": {"id": "01064801", "name": "BEARCAMP RIVER AT SOUTH TAMWORTH, NH", "state": "NH", "drain_sqkm": 173.4003, "huc02": "01", "huc12": "010600020605", "has_data": false, "nsce": null, "cc": null, "rel_bias": null, "norm_bias": null, "rmse": null}, "geometry": {"type": "Point", "coordinates": [-71.28785, 43.83007]}}, {"type": "Feature", "properties": {"id": "01065000", "name": "OSSIPEE RIVER AT EFFINGHAM FALLS, NH", "state": "NH", "drain_sqkm": 855.2583, "huc02": "01", "huc12": "010600020804", "has_data": false, "nsce": null, "cc": null, "rel_bias": null, "norm_bias": null, "rmse": null}, "geometry": {"type": "Point", "coordinates": [-71.05923, 43.79507]}}, {"type": "Feature", "properties": {"id": "01065500", "name": "OSSIPEE RIVER AT CORNISH, ME", "state": "ME", "drain_sqkm": 1172.306, "huc02": "01", "huc12": "010600020905", "has_data": false, "nsce": null, "cc": null, "rel_bias": null, "norm_bias": null, "rmse": null}, "geometry": {"type": "Point", "coordinates": [-70.79758, 43.80771]}}, {"type": "Feature", "properties": {"id": "01066000", "name": "Saco River at Cornish, Maine", "state": "ME", "drain_sqkm": 3354.558, "huc02": "01", "huc12": "010600021101", "has_data": true, "nsce": -0.04859, "cc": 0.51328, "rel_bias": -4.09319, "norm_bias": -11.77885, "rmse": 102.38521}, "geometry": {"type": "Point", "coordinates": [-70.78154, 43.80804]}}, {"type": "Feature", "properties": {"id": "01066500", "name": "LITTLE OSSIPEE RIVER NEAR SOUTH LIMINGTON, ME", "state": "ME", "drain_sqkm": 423.9324, "huc02": "01", "huc12": "010600021007", "has_data": false, "nsce": null, "cc": null, "rel_bias": null, "norm_bias": null, "rmse": null}, "geometry": {"type": "Point", "coordinates": [-70.67056, 43.68944]}}, {"type": "Feature", "properties": {"id": "01067950", "name": "Kennebunk River near Kennebunk, Maine", "state": "ME", "drain_sqkm": 71.5041, "huc02": "01", "huc12": "010600030102", "has_data": false, "nsce": null, "cc": null, "rel_bias": null, "norm_bias": null, "rmse": null}, "geometry": {"type": "Point", "coordinates": [-70.55333, 43.43222]}}, {"type": "Feature", "properties": {"id": "01068910", "name": "Mousam River at Route 4 near Sanford, Maine", "state": "ME", "drain_sqkm": 117.3636, "huc02": "01", "huc12": "010600030202", "has_data": false, "nsce": null, "cc": null, "rel_bias": null, "norm_bias": null, "rmse": null}, "geometry": {"type": "Point", "coordinates": [-70.73806, 43.41833]}}, {"type": "Feature", "properties": {"id": "01069500", "name": "MOUSAM RIVER NEAR WEST KENNEBUNK, ME", "state": "ME", "drain_sqkm": 264.5136, "huc02": "01", "huc12": "010600030205", "has_data": true, "nsce": 0.23768, "cc": 0.52553, "rel_bias": 28.25126, "norm_bias": -3.75934, "rmse": 4.3886}, "geometry": {"type": "Point", "coordinates": [-70.65832, 43.41834]}}, {"type": "Feature", "properties": {"id": "01069700", "name": "Branch Brook near Kennebunk, Maine", "state": "ME", "drain_sqkm": 27.9072, "huc02": "01", "huc12": "010600031101", "has_data": false, "nsce": null, "cc": null, "rel_bias": null, "norm_bias": null, "rmse": null}, "geometry": {"type": "Point", "coordinates": [-70.58333, 43.37917]}}, {"type": "Feature", "properties": {"id": "01072500", "name": "SALMON FALLS RIVER NEAR SOUTH LEBANON, ME", "state": "ME", "drain_sqkm": 359.8155, "huc02": "01", "huc12": "010600030506", "has_data": false, "nsce": null, "cc": null, "rel_bias": null, "norm_bias": null, "rmse": null}, "geometry": {"type": "Point", "coordinates": [-70.92714, 43.32811]}}, {"type": "Feature", "properties": {"id": "01072800", "name": "COCHECO RIVER NEAR ROCHESTER, NH.", "state": "NH", "drain_sqkm": 243.9549, "huc02": "01", "huc12": "010600030608", "has_data": true, "nsce": 0.35869, "cc": 0.64416, "rel_bias": 25.20027, "norm_bias": -5.33007, "rmse": 3.64859}, "geometry": {"type": "Point", "coordinates": [-70.97367, 43.26841]}}, {"type": "Feature", "properties": {"id": "01072870", "name": "ISINGLASS R AT ROCHESTER NECK RD, NR DOVER, NH", "state": "NH", "drain_sqkm": 191.9754, "huc02": "01", "huc12": "010600030607", "has_data": true, "nsce": -0.73599, "cc": null, "rel_bias": -100.0, "norm_bias": -100.0, "rmse": 5.51474}, "geometry": {"type": "Point", "coordinates": [-70.95645, 43.2348]}}, {"type": "Feature", "properties": {"id": "01073000", "name": "OYSTER RIVER NEAR DURHAM, NH", "state": "NH", "drain_sqkm": 31.2984, "huc02": "01", "huc12": "010600030902", "has_data": false, "nsce": null, "cc": null, "rel_bias": null, "norm_bias": null, "rmse": null}, "geometry": {"type": "Point", "coordinates": [-70.96506, 43.1487]}}, {"type": "Feature", "properties": {"id": "01073319", "name": "LAMPREY RIVER AT LANGFORD ROAD, AT RAYMOND, NH", "state": "NH", "drain_sqkm": 144.3951, "huc02": "01", "huc12": "010600030703", "has_data": false, "nsce": null, "cc": null, "rel_bias": null, "norm_bias": null, "rmse": null}, "geometry": {"type": "Point", "coordinates": [-71.20062, 43.04231]}}, {"type": "Feature", "properties": {"id": "01073500", "name": "LAMPREY RIVER NEAR NEWMARKET, NH", "state": "NH", "drain_sqkm": 471.1374, "huc02": "01", "huc12": "010600030709", "has_data": true, "nsce": 0.32412, "cc": 0.46475, "rel_bias": 145.01489, "norm_bias": 7.43991, "rmse": 6.55767}, "geometry": {"type": "Point", "coordinates": [-70.95256, 43.10259]}}, {"type": "Feature", "properties": {"id": "010735562", "name": "EXETER RIVER AT ODELL ROAD, NEAR SANDOWN, NH", "state": "NH", "drain_sqkm": 42.7194, "huc02": "01", "huc12": "010600030801", "has_data": false, "nsce": null, "cc": null, "rel_bias": null, "norm_bias": null, "rmse": null}, "geometry": {"type": "Point", "coordinates": [-71.16478, 42.94898]}}, {"type": "Feature", "properties": {"id": "01073587", "name": "EXETER RIVER AT HAIGH ROAD, NEAR BRENTWOOD, NH", "state": "NH", "drain_sqkm": 163.053, "huc02": "01", "huc12": "010600030803", "has_data": false, "nsce": null, "cc": null, "rel_bias": null, "norm_bias": null, "rmse": null}, "geometry": {"type": "Point", "coordinates": [-71.03839, 42.98453]}}, {"type": "Feature", "properties": {"id": "01073600", "name": "DUDLEY BROOK NEAR EXETER, NH", "state": "NH", "drain_sqkm": 16.3845, "huc02": "01", "huc12": "010600030804", "has_data": false, "nsce": null, "cc": null, "rel_bias": null, "norm_bias": null, "rmse": null}, "geometry": {"type": "Point", "coordinates": [-71.02173, 42.99314]}}, {"type": "Feature", "properties": {"id": "01073785", "name": "WINNICUT RIVER AT GREENLAND, NR PORTSMOUTH, NH", "state": "NH", "drain_sqkm": 36.9495, "huc02": "01", "huc12": "010600030901", "has_data": false, "nsce": null, "cc": null, "rel_bias": null, "norm_bias": null, "rmse": null}, "geometry": {"type": "Point", "coordinates": [-70.84811, 43.03675]}}, {"type": "Feature", "properties": {"id": "01074520", "name": "EAST BRANCH PEMIGEWASSET RIVER AT LINCOLN, NH", "state": "NH", "drain_sqkm": 297.1881, "huc02": "01", "huc12": "010700010104", "has_data": true, "nsce": 0.10032, "cc": 0.48869, "rel_bias": -36.73206, "norm_bias": -38.24474, "rmse": 20.61034}, "geometry": {"type": "Point", "coordinates": [-71.6598, 44.04757]}}, {"type": "Feature", "properties": {"id": "01075000", "name": "PEMIGEWASSET RIVER AT WOODSTOCK, NH", "state": "NH", "drain_sqkm": 504.288, "huc02": "01", "huc12": "010700010203", "has_data": true, "nsce": 0.29468, "cc": 0.54496, "rel_bias": 27.28356, "norm_bias": -10.11849, "rmse": 28.8326}, "geometry": {"type": "Point", "coordinates": [-71.67952, 43.97618]}}, {"type": "Feature", "properties": {"id": "01075800", "name": "STEVENS BROOK NEAR WENTWORTH, NH", "state": "NH", "drain_sqkm": 7.6743, "huc02": "01", "huc12": "010700010305", "has_data": false, "nsce": null, "cc": null, "rel_bias": null, "norm_bias": null, "rmse": null}, "geometry": {"type": "Point", "coordinates": [-71.88536, 43.83618]}}, {"type": "Feature", "properties": {"id": "01076000", "name": "BAKER RIVER NEAR RUMNEY, NH", "state": "NH", "drain_sqkm": 369.8154, "huc02": "01", "huc12": "010700010305", "has_data": true, "nsce": 0.17969, "cc": 0.5082, "rel_bias": 22.46383, "norm_bias": -20.3219, "rmse": 12.65889}, "geometry": {"type": "Point", "coordinates": [-71.84536, 43.79563]}}, {"type": "Feature", "properties": {"id": "01076500", "name": "PEMIGEWASSET RIVER AT PLYMOUTH, NH", "state": "NH", "drain_sqkm": 1608.937, "huc02": "01", "huc12": "010700010404", "has_data": true, "nsce": 0.23695, "cc": 0.65168, "rel_bias": 40.02683, "norm_bias": 1.45822, "rmse": 73.99383}, "geometry": {"type": "Point", "coordinates": [-71.68563, 43.75924]}}, {"type": "Feature", "properties": {"id": "01077000", "name": "SQUAM RIVER AT ASHLAND, NH", "state": "NH", "drain_sqkm": 150.2946, "huc02": "01", "huc12": "010700010502", "has_data": false, "nsce": null, "cc": null, "rel_bias": null, "norm_bias": null, "rmse": null}, "geometry": {"type": "Point", "coordinates": [-71.6298, 43.70535]}}, {"type": "Feature", "properties": {"id": "01077400", "name": "COCKERMOUTH RIVER BELOW HARDY BROOK, AT GROTON, NH", "state": "NH", "drain_sqkm": 56.1951, "huc02": "01", "huc12": "010700010601", "has_data": false, "nsce": null, "cc": null, "rel_bias": null, "norm_bias": null, "rmse": null}, "geometry": {"type": "Point", "coordinates": [-71.83333, 43.70389]}}, {"type": "Feature", "properties": {"id": "01078000", "name": "SMITH RIVER NEAR BRISTOL, NH", "state": "NH", "drain_sqkm": 222.4566, "huc02": "01", "huc12": "010700010702", "has_data": true, "nsce": 0.22646, "cc": 0.50222, "rel_bias": 61.82292, "norm_bias": -4.99929, "rmse": 5.22751}, "geometry": {"type": "Point", "coordinates": [-71.74786, 43.56646]}}, {"type": "Feature", "properties": {"id": "01081000", "name": "WINNIPESAUKEE RIVER AT TILTON, NH", "state": "NH", "drain_sqkm": 1216.967, "huc02": "01", "huc12": "010700020203", "has_data": true, "nsce": 0.20234, "cc": 0.58402, "rel_bias": 26.78982, "norm_bias": 1.55804, "rmse": 14.81905}, "geometry": {"type": "Point", "coordinates": [-71.58758, 43.44174]}}, {"type": "Feature", "properties": {"id": "01081500", "name": "MERRIMACK RIVER AT FRANKLIN JUNCTION, NH", "state": "NH", "drain_sqkm": 3908.064, "huc02": "01", "huc12": "010700060101", "has_data": true, "nsce": 0.1565, "cc": 0.58493, "rel_bias": 2.60554, "norm_bias": -8.11178, "rmse": 82.4846}, "geometry": {"type": "Point", "coordinates": [-71.65285, 43.42285]}}, {"type": "Feature", "properties": {"id": "01082000", "name": "CONTOOCOOK RIVER AT PETERBOROUGH, NH", "state": "NH", "drain_sqkm": 175.023, "huc02": "01", "huc12": "010700030104", "has_data": false, "nsce": null, "cc": null, "rel_bias": null, "norm_bias": null, "rmse": null}, "geometry": {"type": "Point", "coordinates": [-71.95925, 42.86258]}}, {"type": "Feature", "properties": {"id": "01083000", "name": "NUBANUSIT BK BLW MACDOWELL DAM NR PETERBOROUGH NH", "state": "NH", "drain_sqkm": 116.8506, "huc02": "01", "huc12": "010700030103", "has_data": false, "nsce": null, "cc": null, "rel_bias": null, "norm_bias": null, "rmse": null}, "geometry": {"type": "Point", "coordinates": [-71.98675, 42.89286]}}, {"type": "Feature", "properties": {"id": "01084000", "name": "NORTH BRANCH RIVER NEAR ANTRIM, NH", "state": "NH", "drain_sqkm": 140.0814, "huc02": "01", "huc12": "010700030202", "has_data": false, "nsce": null, "cc": null, "rel_bias": null, "norm_bias": null, "rmse": null}, "geometry": {"type": "Point", "coordinates": [-71.97841, 43.08175]}}, {"type": "Feature", "properties": {"id": "01084500", "name": "BEARD BROOK NEAR HILLSBORO, NH", "state": "NH", "drain_sqkm": 143.8074, "huc02": "01", "huc12": "010700030204", "has_data": false, "nsce": null, "cc": null, "rel_bias": null, "norm_bias": null, "rmse": null}, "geometry": {"type": "Point", "coordinates": [-71.92619, 43.11425]}}, {"type": "Feature", "properties": {"id": "01085000", "name": "CONTOOCOOK RIVER NEAR HENNIKER, NH", "state": "NH", "drain_sqkm": 950.0697, "huc02": "01", "huc12": "010700030301", "has_data": true, "nsce": 0.32478, "cc": 0.48373, "rel_bias": 106.74165, "norm_bias": 11.22592, "rmse": 17.36179}, "geometry": {"type": "Point", "coordinates": [-71.8573, 43.15202]}}, {"type": "Feature", "properties": {"id": "01085500", "name": "CONTOOCOOK R BL HOPKINTON DAM AT W HOPKINTON, NH", "state": "NH", "drain_sqkm": 1099.139, "huc02": "01", "huc12": "010700030601", "has_data": true, "nsce": 0.26614, "cc": 0.4663, "rel_bias": 150.25196, "norm_bias": 20.05273, "rmse": 19.49576}, "geometry": {"type": "Point", "coordinates": [-71.7473, 43.19286]}}, {"type": "Feature", "properties": {"id": "01085800", "name": "WEST BRANCH WARNER RIVER NEAR BRADFORD, NH", "state": "NH", "drain_sqkm": 14.7681, "huc02": "01", "huc12": "010700030402", "has_data": false, "nsce": null, "cc": null, "rel_bias": null, "norm_bias": null, "rmse": null}, "geometry": {"type": "Point", "coordinates": [-72.02592, 43.25924]}}, {"type": "Feature", "properties": {"id": "01086000", "name": "WARNER RIVER AT DAVISVILLE, NH", "state": "NH", "drain_sqkm": 381.5766, "huc02": "01", "huc12": "010700030404", "has_data": true, "nsce": 0.07493, "cc": 0.39811, "rel_bias": 158.84634, "norm_bias": -1.63157, "rmse": 7.34627}, "geometry": {"type": "Point", "coordinates": [-71.7323, 43.25119]}}, {"type": "Feature", "properties": {"id": "01087000", "name": "BLACKWATER RIVER NEAR WEBSTER, NH", "state": "NH", "drain_sqkm": 331.8507, "huc02": "01", "huc12": "010700030504", "has_data": false, "nsce": null, "cc": null, "rel_bias": null, "norm_bias": null, "rmse": null}, "geometry": {"type": "Point", "coordinates": [-71.69369, 43.29758]}}, {"type": "Feature", "properties": {"id": "01088000", "name": "CONTOOCOOK RIVER AT PENACOOK, NH", "state": "NH", "drain_sqkm": 1975.255, "huc02": "01", "huc12": "010700030603", "has_data": false, "nsce": null, "cc": null, "rel_bias": null, "norm_bias": null, "rmse": null}, "geometry": {"type": "Point", "coordinates": [-71.59841, 43.28619]}}, {"type": "Feature", "properties": {"id": "01089000", "name": "SOUCOOK RIVER NEAR CONCORD, NH", "state": "NH", "drain_sqkm": 201.0753, "huc02": "01", "huc12": "010700060202", "has_data": false, "nsce": null, "cc": null, "rel_bias": null, "norm_bias": null, "rmse": null}, "geometry": {"type": "Point", "coordinates": [-71.46201, 43.23869]}}, {"type": "Feature", "properties": {"id": "01089100", "name": "SOUCOOK RIVER, AT PEMBROKE ROAD, NEAR CONCORD, NH", "state": "NH", "drain_sqkm": 214.1253, "huc02": "01", "huc12": "010700060202", "has_data": true, "nsce": 0.09901, "cc": 0.47225, "rel_bias": 93.19442, "norm_bias": 3.1733, "rmse": 3.30434}, "geometry": {"type": "Point", "coordinates": [-71.48035, 43.21369]}}, {"type": "Feature", "properties": {"id": "01089500", "name": "SUNCOOK RIVER AT NORTH CHICHESTER, NH", "state": "NH", "drain_sqkm": 400.7988, "huc02": "01", "huc12": "010700060503", "has_data": true, "nsce": 0.28605, "cc": 0.49521, "rel_bias": 199.117, "norm_bias": 14.08316, "rmse": 6.19067}, "geometry": {"type": "Point", "coordinates": [-71.36951, 43.25675]}}, {"type": "Feature", "properties": {"id": "01090800", "name": "PISCATAQUOG RIVER BL EVERETT DAM, NR E WEARE, NH", "state": "NH", "drain_sqkm": 163.1421, "huc02": "01", "huc12": "010700060603", "has_data": false, "nsce": null, "cc": null, "rel_bias": null, "norm_bias": null, "rmse": null}, "geometry": {"type": "Point", "coordinates": [-71.65952, 43.09147]}}, {"type": "Feature", "properties": {"id": "01091000", "name": "SOUTH BRANCH PISCATAQUOG RIVER NEAR GOFFSTOWN, NH", "state": "NH", "drain_sqkm": 266.7591, "huc02": "01", "huc12": "010700060606", "has_data": true, "nsce": 0.24227, "cc": 0.53699, "rel_bias": 42.45331, "norm_bias": -17.34225, "rmse": 5.63558}, "geometry": {"type": "Point", "coordinates": [-71.64146, 43.01481]}}, {"type": "Feature", "properties": {"id": "01091500", "name": "PISCATAQUOG RIVER NEAR GOFFSTOWN, NH", "state": "NH", "drain_sqkm": 519.1128, "huc02": "01", "huc12": "010700060607", "has_data": true, "nsce": 0.17272, "cc": 0.41675, "rel_bias": 150.74905, "norm_bias": 13.75679, "rmse": 9.31303}, "geometry": {"type": "Point", "coordinates": [-71.55062, 43.01675]}}, {"type": "Feature", "properties": {"id": "01092000", "name": "MERRIMACK R NR GOFFS FALLS, BELOW MANCHESTER, NH", "state": "NH", "drain_sqkm": 7987.65, "huc02": "01", "huc12": "010700060803", "has_data": true, "nsce": 0.28762, "cc": 0.49726, "rel_bias": 35.60046, "norm_bias": 2.79955, "rmse": 128.26545}, "geometry": {"type": "Point", "coordinates": [-71.4634, 42.94814]}}, {"type": "Feature", "properties": {"id": "01093000", "name": "SUCKER BROOK AT AUBURN, NH", "state": "NH", "drain_sqkm": 77.7456, "huc02": "01", "huc12": "010700060701", "has_data": false, "nsce": null, "cc": null, "rel_bias": null, "norm_bias": null, "rmse": null}, "geometry": {"type": "Point", "coordinates": [-71.34868, 43.00592]}}, {"type": "Feature", "properties": {"id": "01093800", "name": "STONY BROOK TRIBUTARY NEAR TEMPLE, NH", "state": "NH", "drain_sqkm": 9.3897, "huc02": "01", "huc12": "010700060903", "has_data": false, "nsce": null, "cc": null, "rel_bias": null, "norm_bias": null, "rmse": null}, "geometry": {"type": "Point", "coordinates": [-71.83285, 42.86008]}}, {"type": "Feature", "properties": {"id": "01093852", "name": "SOUHEGAN RIVER (SITE WLR-1) NEAR MILFORD, NH", "state": "NH", "drain_sqkm": 263.7036, "huc02": "01", "huc12": "010700060904", "has_data": true, "nsce": 0.34476, "cc": 0.5526, "rel_bias": 278.88685, "norm_bias": 9.28018, "rmse": 6.11345}, "geometry": {"type": "Point", "coordinates": [-71.70674, 42.84259]}}, {"type": "Feature", "properties": {"id": "01094000", "name": "SOUHEGAN RIVER AT MERRIMACK, NH", "state": "NH", "drain_sqkm": 440.5014, "huc02": "01", "huc12": "010700060906", "has_data": true, "nsce": 0.25138, "cc": 0.4589, "rel_bias": 90.74458, "norm_bias": 0.70924, "rmse": 7.93017}, "geometry": {"type": "Point", "coordinates": [-71.50618, 42.85759]}}, {"type": "Feature", "properties": {"id": "01094400", "name": "NORTH NASHUA RIVER AT FITCHBURG, MA", "state": "MA", "drain_sqkm": 166.1607, "huc02": "01", "huc12": "010700040102", "has_data": false, "nsce": null, "cc": null, "rel_bias": null, "norm_bias": null, "rmse": null}, "geometry": {"type": "Point", "coordinates": [-71.78813, 42.5762]}}, {"type": "Feature", "properties": {"id": "01094500", "name": "NORTH NASHUA RIVER NEAR LEOMINSTER, MA", "state": "MA", "drain_sqkm": 279.657, "huc02": "01", "huc12": "010700040103", "has_data": true, "nsce": 0.25368, "cc": 0.50386, "rel_bias": 11.37616, "norm_bias": -13.01176, "rmse": 6.36696}, "geometry": {"type": "Point", "coordinates": [-71.72257, 42.50176]}}, {"type": "Feature", "properties": {"id": "01095220", "name": "STILLWATER RIVER NEAR STERLING, MA", "state": "MA", "drain_sqkm": 78.68936, "huc02": "01", "huc12": "010700040202", "has_data": false, "nsce": null, "cc": null, "rel_bias": null, "norm_bias": null, "rmse": null}, "geometry": {"type": "Point", "coordinates": [-71.79118, 42.41092]}}, {"type": "Feature", "properties": {"id": "01095375", "name": "QUINAPOXET RIVER AT CANADA MILLS NEAR HOLDEN, MA", "state": "MA", "drain_sqkm": 115.1919, "huc02": "01", "huc12": "010700040201", "has_data": false, "nsce": null, "cc": null, "rel_bias": null, "norm_bias": null, "rmse": null}, "geometry": {"type": "Point", "coordinates": [-71.82813, 42.37287]}}, {"type": "Feature", "properties": {"id": "01095505", "name": "NASHUA RIVER 0.4 MI UPSTREAM RT 110 AT CLINTON, MA", "state": "MA", "drain_sqkm": 322.7157, "huc02": "01", "huc12": "010700040203", "has_data": false, "nsce": null, "cc": null, "rel_bias": null, "norm_bias": null, "rmse": null}, "geometry": {"type": "Point", "coordinates": [-71.68028, 42.42917]}}, {"type": "Feature", "properties": {"id": "01096000", "name": "SQUANNACOOK RIVER NEAR WEST GROTON, MA", "state": "MA", "drain_sqkm": 173.1357, "huc02": "01", "huc12": "010700040302", "has_data": false, "nsce": null, "cc": null, "rel_bias": null, "norm_bias": null, "rmse": null}, "geometry": {"type": "Point", "coordinates": [-71.65785, 42.63426]}}, {"type": "Feature", "properties": {"id": "01096500", "name": "NASHUA RIVER AT EAST PEPPERELL, MA", "state": "MA", "drain_sqkm": 1125.681, "huc02": "01", "huc12": "010700040402", "has_data": true, "nsce": 0.23647, "cc": 0.43225, "rel_bias": 37.03848, "norm_bias": -1.50081, "rmse": 14.508}, "geometry": {"type": "Point", "coordinates": [-71.57507, 42.66759]}}, {"type": "Feature", "properties": {"id": "01096503", "name": "NISSITISSIT RIVER AT PEPPERELL, MA", "state": "MA", "drain_sqkm": 155.7549, "huc02": "01", "huc12": "010700040401", "has_data": false, "nsce": null, "cc": null, "rel_bias": null, "norm_bias": null, "rmse": null}, "geometry": {"type": "Point", "coordinates": [-71.57701, 42.67203]}}, {"type": "Feature", "properties": {"id": "010965852", "name": "BEAVER BROOK AT NORTH PELHAM, NH", "state": "NH", "drain_sqkm": 123.0804, "huc02": "01", "huc12": "010700061203", "has_data": false, "nsce": null, "cc": null, "rel_bias": null, "norm_bias": null, "rmse": null}, "geometry": {"type": "Point", "coordinates": [-71.35367, 42.78287]}}, {"type": "Feature", "properties": {"id": "010965995", "name": "ASSABET RIVER, MILL ROAD NEAR WESTBORO, MA", "state": "MA", "drain_sqkm": 17.7714, "huc02": "01", "huc12": "010700050201", "has_data": false, "nsce": null, "cc": null, "rel_bias": null, "norm_bias": null, "rmse": null}, "geometry": {"type": "Point", "coordinates": [-71.63333, 42.26944]}}, {"type": "Feature", "properties": {"id": "01096835", "name": "ASSABET RIVER AT PORT ST AT HUDSON, MA", "state": "MA", "drain_sqkm": 154.1547, "huc02": "01", "huc12": "010700050202", "has_data": false, "nsce": null, "cc": null, "rel_bias": null, "norm_bias": null, "rmse": null}, "geometry": {"type": "Point", "coordinates": [-71.57778, 42.38528]}}, {"type": "Feature", "properties": {"id": "01096840", "name": "ASSABET RIVER 200 FT BELOW RT 85 AT HUDSON, MA", "state": "MA", "drain_sqkm": 163.6155, "huc02": "01", "huc12": "010700050202", "has_data": false, "nsce": null, "cc": null, "rel_bias": null, "norm_bias": null, "rmse": null}, "geometry": {"type": "Point", "coordinates": [-71.56972, 42.39]}}, {"type": "Feature", "properties": {"id": "01096885", "name": "ASSABET RIVER AT SUDBURY RD NEAR STOW, MA", "state": "MA", "drain_sqkm": 224.5284, "huc02": "01", "huc12": "010700050202", "has_data": false, "nsce": null, "cc": null, "rel_bias": null, "norm_bias": null, "rmse": null}, "geometry": {"type": "Point", "coordinates": [-71.50806, 42.41167]}}, {"type": "Feature", "properties": {"id": "01097000", "name": "ASSABET RIVER AT MAYNARD, MA", "state": "MA", "drain_sqkm": 299.3094, "huc02": "01", "huc12": "010700050204", "has_data": true, "nsce": 0.13805, "cc": 0.4224, "rel_bias": 101.70094, "norm_bias": 11.9668, "rmse": 5.18821}, "geometry": {"type": "Point", "coordinates": [-71.44979, 42.43204]}}, {"type": "Feature", "properties": {"id": "01097300", "name": "NASHOBA BROOK NEAR ACTON, MA", "state": "MA", "drain_sqkm": 30.8718, "huc02": "01", "huc12": "010700050203", "has_data": false, "nsce": null, "cc": null, "rel_bias": null, "norm_bias": null, "rmse": null}, "geometry": {"type": "Point", "coordinates": [-71.40423, 42.51259]}}, {"type": "Feature", "properties": {"id": "01097380", "name": "NASHOBA BROOK, COMMONWEALTH AVE AT W. CONCORD, MA", "state": "MA", "drain_sqkm": 120.4119, "huc02": "01", "huc12": "010700050203", "has_data": false, "nsce": null, "cc": null, "rel_bias": null, "norm_bias": null, "rmse": null}, "geometry": {"type": "Point", "coordinates": [-71.39722, 42.45889]}}, {"type": "Feature", "properties": {"id": "01097480", "name": "SUDBURY RIVER AT ASHLAND, MA", "state": "MA", "drain_sqkm": 90.8289, "huc02": "01", "huc12": "010700050101", "has_data": false, "nsce": null, "cc": null, "rel_bias": null, "norm_bias": null, "rmse": null}, "geometry": {"type": "Point", "coordinates": [-71.45645, 42.2601]}}, {"type": "Feature", "properties": {"id": "01098530", "name": "SUDBURY RIVER AT SAXONVILLE, MA", "state": "MA", "drain_sqkm": 274.2327, "huc02": "01", "huc12": "010700050103", "has_data": true, "nsce": 0.31384, "cc": 0.48166, "rel_bias": 60.95815, "norm_bias": 0.02125, "rmse": 4.68735}, "geometry": {"type": "Point", "coordinates": [-71.39756, 42.32537]}}, {"type": "Feature", "properties": {"id": "01099500", "name": "CONCORD R BELOW R MEADOW BROOK, AT LOWELL, MA", "state": "MA", "drain_sqkm": 1035.51, "huc02": "01", "huc12": "010700050206", "has_data": true, "nsce": 0.16331, "cc": 0.42332, "rel_bias": 17.69694, "norm_bias": -3.13045, "rmse": 13.33417}, "geometry": {"type": "Point", "coordinates": [-71.302, 42.63676]}}, {"type": "Feature", "properties": {"id": "01100000", "name": "MERRIMACK RIVER BL CONCORD RIVER AT LOWELL, MA", "state": "MA", "drain_sqkm": 11983.35, "huc02": "01", "huc12": "010700061207", "has_data": true, "nsce": 0.25617, "cc": 0.47166, "rel_bias": 21.63571, "norm_bias": -1.03445, "rmse": 173.71056}, "geometry": {"type": "Point", "coordinates": [-71.29839, 42.64592]}}, {"type": "Feature", "properties": {"id": "01100505", "name": "SPICKET RIVER AT NORTH SALEM, NH", "state": "NH", "drain_sqkm": 42.8643, "huc02": "01", "huc12": "010700061101", "has_data": false, "nsce": null, "cc": null, "rel_bias": null, "norm_bias": null, "rmse": null}, "geometry": {"type": "Point", "coordinates": [-71.21506, 42.84925]}}, {"type": "Feature", "properties": {"id": "01100561", "name": "SPICKET RIVER NEAR METHUEN, MA", "state": "MA", "drain_sqkm": 158.2974, "huc02": "01", "huc12": "010700061102", "has_data": false, "nsce": null, "cc": null, "rel_bias": null, "norm_bias": null, "rmse": null}, "geometry": {"type": "Point", "coordinates": [-71.20839, 42.74315]}}, {"type": "Feature", "properties": {"id": "01100600", "name": "SHAWSHEEN RIVER NEAR WILMINGTON, MA", "state": "MA", "drain_sqkm": 96.4215, "huc02": "01", "huc12": "010700061302", "has_data": false, "nsce": null, "cc": null, "rel_bias": null, "norm_bias": null, "rmse": null}, "geometry": {"type": "Point", "coordinates": [-71.21478, 42.56815]}}, {"type": "Feature", "properties": {"id": "01100627", "name": "SHAWSHEEN RIVER AT BALMORAL STREET AT ANDOVER, MA", "state": "MA", "drain_sqkm": 173.1114, "huc02": "01", "huc12": "010700061303", "has_data": false, "nsce": null, "cc": null, "rel_bias": null, "norm_bias": null, "rmse": null}, "geometry": {"type": "Point", "coordinates": [-71.14922, 42.67148]}}, {"type": "Feature", "properties": {"id": "01101000", "name": "PARKER RIVER AT BYFIELD, MA", "state": "MA", "drain_sqkm": 55.4778, "huc02": "01", "huc12": "010900010101", "has_data": false, "nsce": null, "cc": null, "rel_bias": null, "norm_bias": null, "rmse": null}, "geometry": {"type": "Point", "coordinates": [-70.94561, 42.75287]}}, {"type": "Feature", "properties": {"id": "01101344", "name": "IPSWICH RIVER AT MILL STREET NR NORTH READING, MA", "state": "MA", "drain_sqkm": 58.0671, "huc02": "01", "huc12": "010900010201", "has_data": false, "nsce": null, "cc": null, "rel_bias": null, "norm_bias": null, "rmse": null}, "geometry": {"type": "Point", "coordinates": [-71.11111, 42.56111]}}, {"type": "Feature", "properties": {"id": "01101500", "name": "IPSWICH RIVER AT SOUTH MIDDLETON, MA", "state": "MA", "drain_sqkm": 115.2826, "huc02": "01", "huc12": "010900010202", "has_data": false, "nsce": null, "cc": null, "rel_bias": null, "norm_bias": null, "rmse": null}, "geometry": {"type": "Point", "coordinates": [-71.027, 42.56954]}}, {"type": "Feature", "properties": {"id": "01102000", "name": "IPSWICH RIVER NEAR IPSWICH, MA", "state": "MA", "drain_sqkm": 316.4265, "huc02": "01", "huc12": "010900010205", "has_data": true, "nsce": 0.40511, "cc": 0.61468, "rel_bias": 165.91125, "norm_bias": 10.36995, "rmse": 3.22533}, "geometry": {"type": "Point", "coordinates": [-70.89366, 42.65982]}}, {"type": "Feature", "properties": {"id": "01102345", "name": "SAUGUS RIVER AT SAUGUS IRONWORKS AT SAUGUS, MA", "state": "MA", "drain_sqkm": 60.3816, "huc02": "01", "huc12": "010900010402", "has_data": false, "nsce": null, "cc": null, "rel_bias": null, "norm_bias": null, "rmse": null}, "geometry": {"type": "Point", "coordinates": [-71.007, 42.46954]}}, {"type": "Feature", "properties": {"id": "01102500", "name": "ABERJONA RIVER AT WINCHESTER, MA", "state": "MA", "drain_sqkm": 59.74671, "huc02": "01", "huc12": "010900010501", "has_data": false, "nsce": null, "cc": null, "rel_bias": null, "norm_bias": null, "rmse": null}, "geometry": {"type": "Point", "coordinates": [-71.13894, 42.44732]}}, {"type": "Feature", "properties": {"id": "01103025", "name": "ALEWIFE BROOK NEAR ARLINGTON, MA", "state": "MA", "drain_sqkm": 21.5235, "huc02": "01", "huc12": "010900010502", "has_data": false, "nsce": null, "cc": null, "rel_bias": null, "norm_bias": null, "rmse": null}, "geometry": {"type": "Point", "coordinates": [-71.13394, 42.40704]}}, {"type": "Feature", "properties": {"id": "01103220", "name": "MISCOE BROOK NEAR FRANKLIN, MA", "state": "MA", "drain_sqkm": 3.033, "huc02": "01", "huc12": "010900010601", "has_data": false, "nsce": null, "cc": null, "rel_bias": null, "norm_bias": null, "rmse": null}, "geometry": {"type": "Point", "coordinates": [-71.42673, 42.04093]}}, {"type": "Feature", "properties": {"id": "01103280", "name": "CHARLES RIVER AT MEDWAY, MA", "state": "MA", "drain_sqkm": 169.119, "huc02": "01", "huc12": "010900010602", "has_data": false, "nsce": null, "cc": null, "rel_bias": null, "norm_bias": null, "rmse": null}, "geometry": {"type": "Point", "coordinates": [-71.3895, 42.13982]}}, {"type": "Feature", "properties": {"id": "01103455", "name": "TROUT BROOK AT DOVER, MA", "state": "MA", "drain_sqkm": 9.7065, "huc02": "01", "huc12": "010900010701", "has_data": false, "nsce": null, "cc": null, "rel_bias": null, "norm_bias": null, "rmse": null}, "geometry": {"type": "Point", "coordinates": [-71.29339, 42.25399]}}, {"type": "Feature", "properties": {"id": "01103500", "name": "CHARLES RIVER AT DOVER, MA", "state": "MA", "drain_sqkm": 473.3199, "huc02": "01", "huc12": "010900010701", "has_data": true, "nsce": 0.29337, "cc": 0.45746, "rel_bias": 52.00091, "norm_bias": 7.30806, "rmse": 6.49857}, "geometry": {"type": "Point", "coordinates": [-71.26006, 42.25621]}}, {"type": "Feature", "properties": {"id": "01104200", "name": "CHARLES RIVER AT WELLESLEY, MA", "state": "MA", "drain_sqkm": 548.3745, "huc02": "01", "huc12": "010900010703", "has_data": true, "nsce": 0.18365, "cc": 0.42202, "rel_bias": 104.19737, "norm_bias": 17.69167, "rmse": 6.24558}, "geometry": {"type": "Point", "coordinates": [-71.22783, 42.31649]}}, {"type": "Feature", "properties": {"id": "01104430", "name": "HOBBS BK BELOW CAMBRIDGE RES NR KENDALL GREEN, MA", "state": "MA", "drain_sqkm": 17.4951, "huc02": "01", "huc12": "010900010702", "has_data": false, "nsce": null, "cc": null, "rel_bias": null, "norm_bias": null, "rmse": null}, "geometry": {"type": "Point", "coordinates": [-71.27339, 42.39815]}}, {"type": "Feature", "properties": {"id": "01104460", "name": "STONY BROOK AT RT 20 AT WALTHAM, MA", "state": "MA", "drain_sqkm": 57.1176, "huc02": "01", "huc12": "010900010702", "has_data": false, "nsce": null, "cc": null, "rel_bias": null, "norm_bias": null, "rmse": null}, "geometry": {"type": "Point", "coordinates": [-71.27061, 42.36899]}}, {"type": "Feature", "properties": {"id": "01104475", "name": "STONY BROOK RES., UNNAMED TRIB 1, NEAR WESTON, MA", "state": "MA", "drain_sqkm": 2.0808, "huc02": "01", "huc12": "010900010702", "has_data": false, "nsce": null, "cc": null, "rel_bias": null, "norm_bias": null, "rmse": null}, "geometry": {"type": "Point", "coordinates": [-71.26811, 42.35454]}}, {"type": "Feature", "properties": {"id": "01104500", "name": "CHARLES RIVER AT WALTHAM, MA", "state": "MA", "drain_sqkm": 647.4123, "huc02": "01", "huc12": "010900010703", "has_data": true, "nsce": 0.01492, "cc": 0.44732, "rel_bias": 9.32557, "norm_bias": -6.91502, "rmse": 7.92071}, "geometry": {"type": "Point", "coordinates": [-71.23367, 42.37232]}}, {"type": "Feature", "properties": {"id": "01105000", "name": "NEPONSET RIVER AT NORWOOD, MA", "state": "MA", "drain_sqkm": 84.8778, "huc02": "01", "huc12": "010900010801", "has_data": false, "nsce": null, "cc": null, "rel_bias": null, "norm_bias": null, "rmse": null}, "geometry": {"type": "Point", "coordinates": [-71.20089, 42.1776]}}, {"type": "Feature", "properties": {"id": "01105500", "name": "EAST BRANCH NEPONSET RIVER AT CANTON, MA", "state": "MA", "drain_sqkm": 60.7122, "huc02": "01", "huc12": "010900010802", "has_data": false, "nsce": null, "cc": null, "rel_bias": null, "norm_bias": null, "rmse": null}, "geometry": {"type": "Point", "coordinates": [-71.14588, 42.15454]}}, {"type": "Feature", "properties": {"id": "01105554", "name": "NEPONSET RIVER AT GREENLODGE ST NEAR CANTON, MA", "state": "MA", "drain_sqkm": 220.7016, "huc02": "01", "huc12": "010900010803", "has_data": true, "nsce": 0.28868, "cc": 0.48959, "rel_bias": 75.50772, "norm_bias": 9.52572, "rmse": 2.96283}, "geometry": {"type": "Point", "coordinates": [-71.14589, 42.20927]}}, {"type": "Feature", "properties": {"id": "011055566", "name": "NEPONSET RIVER AT MILTON VILLAGE, MA", "state": "MA", "drain_sqkm": 271.8387, "huc02": "01", "huc12": "010900010803", "has_data": false, "nsce": null, "cc": null, "rel_bias": null, "norm_bias": null, "rmse": null}, "geometry": {"type": "Point", "coordinates": [-71.06838, 42.27093]}}, {"type": "Feature", "properties": {"id": "01105583", "name": "MONATIQUOT RIVER AT EAST BRAINTREE, MA", "state": "MA", "drain_sqkm": 73.5768, "huc02": "01", "huc12": "010900010901", "has_data": false, "nsce": null, "cc": null, "rel_bias": null, "norm_bias": null, "rmse": null}, "geometry": {"type": "Point", "coordinates": [-70.9781, 42.22093]}}, {"type": "Feature", "properties": {"id": "01105585", "name": "TOWN BROOK AT QUINCY, MA", "state": "MA", "drain_sqkm": 11.1312, "huc02": "01", "huc12": "010900010901", "has_data": false, "nsce": null, "cc": null, "rel_bias": null, "norm_bias": null, "rmse": null}, "geometry": {"type": "Point", "coordinates": [-70.99727, 42.24788]}}, {"type": "Feature", "properties": {"id": "01105600", "name": "OLD SWAMP RIVER NEAR SOUTH WEYMOUTH, MA", "state": "MA", "drain_sqkm": 12.6603, "huc02": "01", "huc12": "010900010902", "has_data": false, "nsce": null, "cc": null, "rel_bias": null, "norm_bias": null, "rmse": null}, "geometry": {"type": "Point", "coordinates": [-70.94477, 42.19038]}}, {"type": "Feature", "properties": {"id": "01105638", "name": "WEIR RIVER AT LEAVITT STREET AT HINGHAM, MA", "state": "MA", "drain_sqkm": 39.2292, "huc02": "01", "huc12": "010900010903", "has_data": false, "nsce": null, "cc": null, "rel_bias": null, "norm_bias": null, "rmse": null}, "geometry": {"type": "Point", "coordinates": [-70.87199, 42.23482]}}, {"type": "Feature", "properties": {"id": "01105730", "name": "INDIAN HEAD RIVER AT HANOVER, MA", "state": "MA", "drain_sqkm": 79.5672, "huc02": "01", "huc12": "010900020102", "has_data": false, "nsce": null, "cc": null, "rel_bias": null, "norm_bias": null, "rmse": null}, "geometry": {"type": "Point", "coordinates": [-70.82254, 42.10066]}}, {"type": "Feature", "properties": {"id": "01105870", "name": "JONES RIVER AT KINGSTON, MA", "state": "MA", "drain_sqkm": 55.1439, "huc02": "01", "huc12": "010900020103", "has_data": false, "nsce": null, "cc": null, "rel_bias": null, "norm_bias": null, "rmse": null}, "geometry": {"type": "Point", "coordinates": [-70.73365, 41.99094]}}, {"type": "Feature", "properties": {"id": "011058756", "name": "EEL RIVER AT RUSSELL MILL RD NEAR PLYMOUTH, MA", "state": "MA", "drain_sqkm": 11.502, "huc02": "01", "huc12": "010900020105", "has_data": false, "nsce": null, "cc": null, "rel_bias": null, "norm_bias": null, "rmse": null}, "geometry": {"type": "Point", "coordinates": [-70.62642, 41.9176]}}, {"type": "Feature", "properties": {"id": "01105876", "name": "EEL RIVER AT RT 3A NEAR PLYMOUTH, MA", "state": "MA", "drain_sqkm": 34.9497, "huc02": "01", "huc12": "010900020105", "has_data": false, "nsce": null, "cc": null, "rel_bias": null, "norm_bias": null, "rmse": null}, "geometry": {"type": "Point", "coordinates": [-70.62253, 41.94177]}}, {"type": "Feature", "properties": {"id": "01105880", "name": "HERRING RIVER AT NORTH HARWICH, MA", "state": "MA", "drain_sqkm": 25.5222, "huc02": "01", "huc12": "010900020203", "has_data": false, "nsce": null, "cc": null, "rel_bias": null, "norm_bias": null, "rmse": null}, "geometry": {"type": "Point", "coordinates": [-70.10696, 41.70011]}}, {"type": "Feature", "properties": {"id": "01105917", "name": "MATTAPOISETT RIVER NEAR MATTAPOISETT, MA", "state": "MA", "drain_sqkm": 61.272, "huc02": "01", "huc12": "010900020305", "has_data": false, "nsce": null, "cc": null, "rel_bias": null, "norm_bias": null, "rmse": null}, "geometry": {"type": "Point", "coordinates": [-70.83837, 41.6626]}}, {"type": "Feature", "properties": {"id": "01105933", "name": "PASKAMANSET RIVER NEAR SOUTH DARTMOUTH, MA", "state": "MA", "drain_sqkm": 68.0985, "huc02": "01", "huc12": "010900020402", "has_data": false, "nsce": null, "cc": null, "rel_bias": null, "norm_bias": null, "rmse": null}, "geometry": {"type": "Point", "coordinates": [-70.99032, 41.58538]}}, {"type": "Feature", "properties": {"id": "01106000", "name": "ADAMSVILLE BROOK AT ADAMSVILLE, RI", "state": "RI", "drain_sqkm": 22.06624, "huc02": "01", "huc12": "010900020502", "has_data": false, "nsce": null, "cc": null, "rel_bias": null, "norm_bias": null, "rmse": null}, "geometry": {"type": "Point", "coordinates": [-71.12921, 41.55844]}}, {"type": "Feature", "properties": {"id": "01106500", "name": "MATFIELD RIVER AT ELMWOOD, MA", "state": "MA", "drain_sqkm": 104.4702, "huc02": "01", "huc12": "010900040102", "has_data": false, "nsce": null, "cc": null, "rel_bias": null, "norm_bias": null, "rmse": null}, "geometry": {"type": "Point", "coordinates": [-70.96115, 42.01538]}}, {"type": "Feature", "properties": {"id": "01108000", "name": "TAUNTON RIVER NEAR BRIDGEWATER, MA", "state": "MA", "drain_sqkm": 677.6388, "huc02": "01", "huc12": "010900040204", "has_data": true, "nsce": 0.49916, "cc": 0.73169, "rel_bias": 40.20591, "norm_bias": 7.55774, "rmse": 9.39354}, "geometry": {"type": "Point", "coordinates": [-70.95643, 41.93399]}}, {"type": "Feature", "properties": {"id": "01108320", "name": "CANOE RIVER NEAR NORTON, MA", "state": "MA", "drain_sqkm": 57.8601, "huc02": "01", "huc12": "010900040801", "has_data": false, "nsce": null, "cc": null, "rel_bias": null, "norm_bias": null, "rmse": null}, "geometry": {"type": "Point", "coordinates": [-71.14394, 41.97732]}}, {"type": "Feature", "properties": {"id": "01108410", "name": "MILL RIVER AT SPRING STREET AT TAUNTON, MA", "state": "MA", "drain_sqkm": 122.022, "huc02": "01", "huc12": "010900040801", "has_data": false, "nsce": null, "cc": null, "rel_bias": null, "norm_bias": null, "rmse": null}, "geometry": {"type": "Point", "coordinates": [-71.08949, 41.89982]}}, {"type": "Feature", "properties": {"id": "01108500", "name": "WADING RIVER AT WEST MANSFIELD, MA", "state": "MA", "drain_sqkm": 51.7797, "huc02": "01", "huc12": "010900040301", "has_data": false, "nsce": null, "cc": null, "rel_bias": null, "norm_bias": null, "rmse": null}, "geometry": {"type": "Point", "coordinates": [-71.26005, 42.0001]}}, {"type": "Feature", "properties": {"id": "01109000", "name": "WADING RIVER NEAR NORTON, MA", "state": "MA", "drain_sqkm": 112.7429, "huc02": "01", "huc12": "010900040301", "has_data": false, "nsce": null, "cc": null, "rel_bias": null, "norm_bias": null, "rmse": null}, "geometry": {"type": "Point", "coordinates": [-71.17672, 41.9476]}}, {"type": "Feature", "properties": {"id": "01109060", "name": "THREEMILE RIVER AT NORTH DIGHTON, MA", "state": "MA", "drain_sqkm": 220.1049, "huc02": "01", "huc12": "010900040302", "has_data": true, "nsce": 0.33224, "cc": 0.5903, "rel_bias": 82.30892, "norm_bias": 6.86913, "rmse": 3.64102}, "geometry": {"type": "Point", "coordinates": [-71.12282, 41.86621]}}, {"type": "Feature", "properties": {"id": "01109070", "name": "SEGREGANSET RIVER NEAR DIGHTON, MA", "state": "MA", "drain_sqkm": 27.1674, "huc02": "01", "huc12": "010900040804", "has_data": false, "nsce": null, "cc": null, "rel_bias": null, "norm_bias": null, "rmse": null}, "geometry": {"type": "Point", "coordinates": [-71.14282, 41.84038]}}, {"type": "Feature", "properties": {"id": "01109090", "name": "RATTLESNAKE BROOK NEAR ASSONET, MA", "state": "MA", "drain_sqkm": 12.771, "huc02": "01", "huc12": "010900040802", "has_data": false, "nsce": null, "cc": null, "rel_bias": null, "norm_bias": null, "rmse": null}, "geometry": {"type": "Point", "coordinates": [-71.08921, 41.77677]}}, {"type": "Feature", "properties": {"id": "01109220", "name": "PALMER RIVER AT SOUTH REHOBOTH, MA", "state": "MA", "drain_sqkm": 78.93089, "huc02": "01", "huc12": "010900040701", "has_data": false, "nsce": null, "cc": null, "rel_bias": null, "norm_bias": null, "rmse": null}, "geometry": {"type": "Point", "coordinates": [-71.27783, 41.80927]}}, {"type": "Feature", "properties": {"id": "01109403", "name": "TEN MILE RIVER AT PAWTUCKET AVE @ E PROVIDENCE, RI", "state": "RI", "drain_sqkm": 137.592, "huc02": "01", "huc12": "010900040401", "has_data": false, "nsce": null, "cc": null, "rel_bias": null, "norm_bias": null, "rmse": null}, "geometry": {"type": "Point", "coordinates": [-71.35116, 41.83093]}}, {"type": "Feature", "properties": {"id": "01109500", "name": "KETTLE BROOK AT WORCESTER, MA", "state": "MA", "drain_sqkm": 82.224, "huc02": "01", "huc12": "010900030101", "has_data": false, "nsce": null, "cc": null, "rel_bias": null, "norm_bias": null, "rmse": null}, "geometry": {"type": "Point", "coordinates": [-71.83479, 42.23204]}}, {"type": "Feature", "properties": {"id": "01109730", "name": "BLACKSTONE RIVER, W. MAIN ST., AT MILLBURY, MA", "state": "MA", "drain_sqkm": 185.7519, "huc02": "01", "huc12": "010900030102", "has_data": true, "nsce": -1.17942, "cc": 0.56461, "rel_bias": -94.96035, "norm_bias": -90.5647, "rmse": 6.88203}, "geometry": {"type": "Point", "coordinates": [-71.76507, 42.18898]}}, {"type": "Feature", "properties": {"id": "01110000", "name": "QUINSIGAMOND RIVER AT NORTH GRAFTON, MA", "state": "MA", "drain_sqkm": 66.08279, "huc02": "01", "huc12": "010900030103", "has_data": false, "nsce": null, "cc": null, "rel_bias": null, "norm_bias": null, "rmse": null}, "geometry": {"type": "Point", "coordinates": [-71.7109, 42.23037]}}, {"type": "Feature", "properties": {"id": "01110500", "name": "BLACKSTONE RIVER AT NORTHBRIDGE, MA", "state": "MA", "drain_sqkm": 363.5217, "huc02": "01", "huc12": "010900030105", "has_data": false, "nsce": null, "cc": null, "rel_bias": null, "norm_bias": null, "rmse": null}, "geometry": {"type": "Point", "coordinates": [-71.65201, 42.15371]}}, {"type": "Feature", "properties": {"id": "01111050", "name": "MUMFORD RIVER AT UXBRIDGE, MA", "state": "MA", "drain_sqkm": 145.3851, "huc02": "01", "huc12": "010900030104", "has_data": false, "nsce": null, "cc": null, "rel_bias": null, "norm_bias": null, "rmse": null}, "geometry": {"type": "Point", "coordinates": [-71.62479, 42.0751]}}, {"type": "Feature", "properties": {"id": "01111200", "name": "WEST RIVER BELOW WEST HILL DAM, NR UXBRIDGE, MA", "state": "MA", "drain_sqkm": 72.3798, "huc02": "01", "huc12": "010900030201", "has_data": false, "nsce": null, "cc": null, "rel_bias": null, "norm_bias": null, "rmse": null}, "geometry": {"type": "Point", "coordinates": [-71.60729, 42.10482]}}, {"type": "Feature", "properties": {"id": "01111212", "name": "BLACKSTONE RIVER, RT 122 BRIDGE NEAR UXBRIDGE, MA", "state": "MA", "drain_sqkm": 631.4301, "huc02": "01", "huc12": "010900030206", "has_data": true, "nsce": 0.21609, "cc": 0.57716, "rel_bias": 75.69254, "norm_bias": 12.31148, "rmse": 11.63194}, "geometry": {"type": "Point", "coordinates": [-71.61645, 42.05482]}}, {"type": "Feature", "properties": {"id": "01111225", "name": "EMERSON BROOK NEAR UXBRIDGE, MA", "state": "MA", "drain_sqkm": 18.0576, "huc02": "01", "huc12": "010900030206", "has_data": false, "nsce": null, "cc": null, "rel_bias": null, "norm_bias": null, "rmse": null}, "geometry": {"type": "Point", "coordinates": [-71.62201, 42.04454]}}, {"type": "Feature", "properties": {"id": "01111300", "name": "NIPMUC RIVER NEAR HARRISVILLE, RI", "state": "RI", "drain_sqkm": 41.0625, "huc02": "01", "huc12": "010900030202", "has_data": false, "nsce": null, "cc": null, "rel_bias": null, "norm_bias": null, "rmse": null}, "geometry": {"type": "Point", "coordinates": [-71.6859, 41.98121]}}, {"type": "Feature", "properties": {"id": "01111500", "name": "BRANCH RIVER AT FORESTDALE, RI", "state": "RI", "drain_sqkm": 237.2391, "huc02": "01", "huc12": "010900030204", "has_data": true, "nsce": 0.19168, "cc": 0.57014, "rel_bias": 8.29244, "norm_bias": -12.08291, "rmse": 4.93209}, "geometry": {"type": "Point", "coordinates": [-71.56256, 41.99649]}}, {"type": "Feature", "properties": {"id": "01112500", "name": "BLACKSTONE RIVER AT WOONSOCKET, RI", "state": "RI", "drain_sqkm": 1047.424, "huc02": "01", "huc12": "010900030208", "has_data": true, "nsce": 0.29101, "cc": 0.54446, "rel_bias": 31.87774, "norm_bias": 1.56939, "rmse": 18.58383}, "geometry": {"type": "Point", "coordinates": [-71.50312, 42.00621]}}, {"type": "Feature", "properties": {"id": "01113695", "name": "CATAMINT BROOK AT CUMBERLAND, RI", "state": "RI", "drain_sqkm": 10.6497, "huc02": "01", "huc12": "010900030207", "has_data": false, "nsce": null, "cc": null, "rel_bias": null, "norm_bias": null, "rmse": null}, "geometry": {"type": "Point", "coordinates": [-71.41367, 41.9851]}}, {"type": "Feature", "properties": {"id": "01113895", "name": "BLACKSTONE R AT ROOSEVELT ST AT PAWTUCKET RI", "state": "RI", "drain_sqkm": 1247.535, "huc02": "01", "huc12": "010900030208", "has_data": true, "nsce": 0.39404, "cc": 0.60938, "rel_bias": 25.92657, "norm_bias": 1.99042, "rmse": 18.64936}, "geometry": {"type": "Point", "coordinates": [-71.38144, 41.88871]}}, {"type": "Feature", "properties": {"id": "01114000", "name": "MOSHASSUCK RIVER AT PROVIDENCE, RI", "state": "RI", "drain_sqkm": 60.42774, "huc02": "01", "huc12": "010900040501", "has_data": false, "nsce": null, "cc": null, "rel_bias": null, "norm_bias": null, "rmse": null}, "geometry": {"type": "Point", "coordinates": [-71.41117, 41.83399]}}, {"type": "Feature", "properties": {"id": "01114500", "name": "WOONASQUATUCKET RIVER AT CENTERDALE, RI", "state": "RI", "drain_sqkm": 98.8735, "huc02": "01", "huc12": "010900040502", "has_data": false, "nsce": null, "cc": null, "rel_bias": null, "norm_bias": null, "rmse": null}, "geometry": {"type": "Point", "coordinates": [-71.48728, 41.85899]}}, {"type": "Feature", "properties": {"id": "01115098", "name": "PEEPTOAD BROOK AT ELMDALE RD NR NORTH SCITUATE, RI", "state": "RI", "drain_sqkm": 13.3569, "huc02": "01", "huc12": "010900040604", "has_data": false, "nsce": null, "cc": null, "rel_bias": null, "norm_bias": null, "rmse": null}, "geometry": {"type": "Point", "coordinates": [-71.60617, 41.8526]}}, {"type": "Feature", "properties": {"id": "01115187", "name": "PONAGANSET RIVER AT SOUTH FOSTER, RI", "state": "RI", "drain_sqkm": 38.8251, "huc02": "01", "huc12": "010900040605", "has_data": false, "nsce": null, "cc": null, "rel_bias": null, "norm_bias": null, "rmse": null}, "geometry": {"type": "Point", "coordinates": [-71.70507, 41.81871]}}, {"type": "Feature", "properties": {"id": "01115630", "name": "NOOSENECK RIVER AT NOOSENECK, RI", "state": "RI", "drain_sqkm": 21.7368, "huc02": "01", "huc12": "010900040601", "has_data": false, "nsce": null, "cc": null, "rel_bias": null, "norm_bias": null, "rmse": null}, "geometry": {"type": "Point", "coordinates": [-71.63256, 41.62677]}}, {"type": "Feature", "properties": {"id": "01115670", "name": "CONGDON RIVER NEAR NOOSENECK, RI", "state": "RI", "drain_sqkm": 10.899, "huc02": "01", "huc12": "010900040601", "has_data": false, "nsce": null, "cc": null, "rel_bias": null, "norm_bias": null, "rmse": null}, "geometry": {"type": "Point", "coordinates": [-71.62284, 41.61232]}}, {"type": "Feature", "properties": {"id": "01115770", "name": "CARR RIVER NEAR NOOSENECK, RI", "state": "RI", "drain_sqkm": 18.9081, "huc02": "01", "huc12": "010900040601", "has_data": false, "nsce": null, "cc": null, "rel_bias": null, "norm_bias": null, "rmse": null}, "geometry": {"type": "Point", "coordinates": [-71.60784, 41.64316]}}, {"type": "Feature", "properties": {"id": "01116000", "name": "SOUTH BRANCH PAWTUXET RIVER AT WASHINGTON, RI", "state": "RI", "drain_sqkm": 168.2577, "huc02": "01", "huc12": "010900040603", "has_data": false, "nsce": null, "cc": null, "rel_bias": null, "norm_bias": null, "rmse": null}, "geometry": {"type": "Point", "coordinates": [-71.5659, 41.6901]}}, {"type": "Feature", "properties": {"id": "01116500", "name": "PAWTUXET RIVER AT CRANSTON, RI", "state": "RI", "drain_sqkm": 525.0195, "huc02": "01", "huc12": "010900040609", "has_data": true, "nsce": 0.32776, "cc": 0.59218, "rel_bias": 36.53077, "norm_bias": -0.74177, "rmse": 8.17498}, "geometry": {"type": "Point", "coordinates": [-71.44506, 41.75093]}}, {"type": "Feature", "properties": {"id": "01116905", "name": "HUNT R 250 FT DS FRY BRK AT FRENCHTOWN, RI", "state": "RI", "drain_sqkm": 40.7619, "huc02": "01", "huc12": "010900040904", "has_data": false, "nsce": null, "cc": null, "rel_bias": null, "norm_bias": null, "rmse": null}, "geometry": {"type": "Point", "coordinates": [-71.47889, 41.63]}}, {"type": "Feature", "properties": {"id": "01117000", "name": "HUNT RIVER NEAR EAST GREENWICH, RI", "state": "RI", "drain_sqkm": 59.6844, "huc02": "01", "huc12": "010900040904", "has_data": false, "nsce": null, "cc": null, "rel_bias": null, "norm_bias": null, "rmse": null}, "geometry": {"type": "Point", "coordinates": [-71.44534, 41.64121]}}, {"type": "Feature", "properties": {"id": "01117350", "name": "CHIPUXET RIVER AT WEST KINGSTON, RI", "state": "RI", "drain_sqkm": 25.2135, "huc02": "01", "huc12": "011000070201", "has_data": false, "nsce": null, "cc": null, "rel_bias": null, "norm_bias": null, "rmse": null}, "geometry": {"type": "Point", "coordinates": [-71.55117, 41.48232]}}, {"type": "Feature", "properties": {"id": "01117370", "name": "QUEEN R AT LIBERTY RD AT LIBERTY RI", "state": "RI", "drain_sqkm": 50.4774, "huc02": "01", "huc12": "011000070202", "has_data": false, "nsce": null, "cc": null, "rel_bias": null, "norm_bias": null, "rmse": null}, "geometry": {"type": "Point", "coordinates": [-71.56867, 41.53899]}}, {"type": "Feature", "properties": {"id": "01117420", "name": "USQUEPAUG RIVER NEAR USQUEPAUG, RI", "state": "RI", "drain_sqkm": 93.1356, "huc02": "01", "huc12": "011000070202", "has_data": false, "nsce": null, "cc": null, "rel_bias": null, "norm_bias": null, "rmse": null}, "geometry": {"type": "Point", "coordinates": [-71.60479, 41.47677]}}, {"type": "Feature", "properties": {"id": "01117430", "name": "PAWCATUCK RIVER AT KENYON, RI", "state": "RI", "drain_sqkm": 189.0441, "huc02": "01", "huc12": "011000070204", "has_data": true, "nsce": -2.17339, "cc": null, "rel_bias": -100.0, "norm_bias": -100.0, "rmse": 6.25975}, "geometry": {"type": "Point", "coordinates": [-71.62117, 41.44621]}}, {"type": "Feature", "properties": {"id": "01117468", "name": "BEAVER RIVER NEAR USQUEPAUG, RI", "state": "RI", "drain_sqkm": 25.3413, "huc02": "01", "huc12": "011000070203", "has_data": false, "nsce": null, "cc": null, "rel_bias": null, "norm_bias": null, "rmse": null}, "geometry": {"type": "Point", "coordinates": [-71.62812, 41.4926]}}, {"type": "Feature", "properties": {"id": "01117500", "name": "PAWCATUCK RIVER AT WOOD RIVER JUNCTION, RI", "state": "RI", "drain_sqkm": 260.4375, "huc02": "01", "huc12": "011000070205", "has_data": true, "nsce": 0.30278, "cc": 0.63309, "rel_bias": 20.70156, "norm_bias": -0.84694, "rmse": 4.0464}, "geometry": {"type": "Point", "coordinates": [-71.6809, 41.4451]}}, {"type": "Feature", "properties": {"id": "01117800", "name": "WOOD RIVER NEAR ARCADIA, RI", "state": "RI", "drain_sqkm": 90.76591, "huc02": "01", "huc12": "011000070101", "has_data": false, "nsce": null, "cc": null, "rel_bias": null, "norm_bias": null, "rmse": null}, "geometry": {"type": "Point", "coordinates": [-71.72062, 41.57399]}}, {"type": "Feature", "properties": {"id": "01118000", "name": "WOOD RIVER AT HOPE VALLEY, RI", "state": "RI", "drain_sqkm": 193.2111, "huc02": "01", "huc12": "011000070102", "has_data": true, "nsce": -1.80649, "cc": null, "rel_bias": -100.0, "norm_bias": -100.0, "rmse": 6.73089}, "geometry": {"type": "Point", "coordinates": [-71.71646, 41.49815]}}, {"type": "Feature", "properties": {"id": "01118300", "name": "PENDLETON HILL BROOK NEAR CLARKS FALLS, CT.", "state": "CT", "drain_sqkm": 10.3644, "huc02": "01", "huc12": "011000070301", "has_data": false, "nsce": null, "cc": null, "rel_bias": null, "norm_bias": null, "rmse": null}, "geometry": {"type": "Point", "coordinates": [-71.83424, 41.47482]}}, {"type": "Feature", "properties": {"id": "01118500", "name": "PAWCATUCK RIVER AT WESTERLY, RI", "state": "RI", "drain_sqkm": 765.774, "huc02": "01", "huc12": "011000070303", "has_data": true, "nsce": 0.39023, "cc": 0.73071, "rel_bias": 1.06415, "norm_bias": -5.76963, "rmse": 10.3663}, "geometry": {"type": "Point", "coordinates": [-71.83312, 41.38371]}}, {"type": "Feature", "properties": {"id": "01119384", "name": "WILLIMANTIC RIVER NEAR MANSFIELD DEPOT, CT", "state": "CT", "drain_sqkm": 255.6423, "huc02": "01", "huc12": "011000020108", "has_data": false, "nsce": null, "cc": null, "rel_bias": null, "norm_bias": null, "rmse": null}, "geometry": {"type": "Point", "coordinates": [-72.31694, 41.81611]}}, {"type": "Feature", "properties": {"id": "01119500", "name": "WILLIMANTIC RIVER NEAR COVENTRY, CT.", "state": "CT", "drain_sqkm": 314.8461, "huc02": "01", "huc12": "011000020108", "has_data": true, "nsce": 0.39448, "cc": 0.66932, "rel_bias": -6.41725, "norm_bias": -19.42243, "rmse": 7.1325}, "geometry": {"type": "Point", "coordinates": [-72.26564, 41.75065]}}, {"type": "Feature", "properties": {"id": "01120000", "name": "HOP R NR COLUMBIA, CT.", "state": "CT", "drain_sqkm": 192.8583, "huc02": "01", "huc12": "011000020106", "has_data": false, "nsce": null, "cc": null, "rel_bias": null, "norm_bias": null, "rmse": null}, "geometry": {"type": "Point", "coordinates": [-72.3023, 41.7276]}}, {"type": "Feature", "properties": {"id": "01120500", "name": "SAFFORD BK NR WOODSTOCK VALLEY, CT.", "state": "CT", "drain_sqkm": 6.6564, "huc02": "01", "huc12": "011000020201", "has_data": false, "nsce": null, "cc": null, "rel_bias": null, "norm_bias": null, "rmse": null}, "geometry": {"type": "Point", "coordinates": [-72.05702, 41.92649]}}, {"type": "Feature", "properties": {"id": "01121000", "name": "MOUNT HOPE RIVER NEAR WARRENVILLE, CT.", "state": "CT", "drain_sqkm": 70.25372, "huc02": "01", "huc12": "011000020205", "has_data": false, "nsce": null, "cc": null, "rel_bias": null, "norm_bias": null, "rmse": null}, "geometry": {"type": "Point", "coordinates": [-72.16897, 41.84371]}}, {"type": "Feature", "properties": {"id": "01122000", "name": "NATCHAUG RIVER AT WILLIMANTIC, CT.", "state": "CT", "drain_sqkm": 453.2904, "huc02": "01", "huc12": "011000020206", "has_data": true, "nsce": 0.35969, "cc": 0.592, "rel_bias": 66.29418, "norm_bias": -0.04263, "rmse": 8.26136}, "geometry": {"type": "Point", "coordinates": [-72.19563, 41.71982]}}, {"type": "Feature", "properties": {"id": "01122500", "name": "SHETUCKET RIVER NEAR WILLIMANTIC, CT.", "state": "CT", "drain_sqkm": 1048.47, "huc02": "01", "huc12": "011000020303", "has_data": true, "nsce": 0.44829, "cc": 0.59459, "rel_bias": 51.46355, "norm_bias": 3.05656, "rmse": 19.98854}, "geometry": {"type": "Point", "coordinates": [-72.18202, 41.70038]}}, {"type": "Feature", "properties": {"id": "01123000", "name": "LITTLE RIVER NEAR HANOVER, CT.", "state": "CT", "drain_sqkm": 77.85271, "huc02": "01", "huc12": "011000020302", "has_data": false, "nsce": null, "cc": null, "rel_bias": null, "norm_bias": null, "rmse": null}, "geometry": {"type": "Point", "coordinates": [-72.0523, 41.67177]}}, {"type": "Feature", "properties": {"id": "011230695", "name": "SHETUCKET RIVER AT TAFTVILLE, CONN.", "state": "CT", "drain_sqkm": 1330.078, "huc02": "01", "huc12": "011000020303", "has_data": false, "nsce": null, "cc": null, "rel_bias": null, "norm_bias": null, "rmse": null}, "geometry": {"type": "Point", "coordinates": [-72.04508, 41.56843]}}, {"type": "Feature", "properties": {"id": "01123360", "name": "QUINEBAUG R BL E BRIMFIELD DAM AT FISKDALE, MA", "state": "MA", "drain_sqkm": 162.2727, "huc02": "01", "huc12": "011000010103", "has_data": false, "nsce": null, "cc": null, "rel_bias": null, "norm_bias": null, "rmse": null}, "geometry": {"type": "Point", "coordinates": [-72.12369, 42.10871]}}, {"type": "Feature", "properties": {"id": "01123600", "name": "QUINEBAUG R BL WESTVILLE DAM NR SOUTHBRIDGE, MA", "state": "MA", "drain_sqkm": 244.6191, "huc02": "01", "huc12": "011000010103", "has_data": true, "nsce": 0.39658, "cc": 0.60025, "rel_bias": 46.58998, "norm_bias": 0.8762, "rmse": 5.00807}, "geometry": {"type": "Point", "coordinates": [-72.05702, 42.08287]}}, {"type": "Feature", "properties": {"id": "01124000", "name": "QUINEBAUG RIVER AT QUINEBAUG, CT.", "state": "CT", "drain_sqkm": 392.0004, "huc02": "01", "huc12": "011000010105", "has_data": true, "nsce": 0.39484, "cc": 0.59563, "rel_bias": 78.03114, "norm_bias": 8.93694, "rmse": 8.12608}, "geometry": {"type": "Point", "coordinates": [-71.95563, 42.02232]}}, {"type": "Feature", "properties": {"id": "01124151", "name": "QUINEBAUG R AT WEST THOMPSON, CONN.", "state": "CT", "drain_sqkm": 433.9116, "huc02": "01", "huc12": "011000010403", "has_data": true, "nsce": 0.32162, "cc": 0.51977, "rel_bias": 84.21397, "norm_bias": 7.73721, "rmse": 8.61801}, "geometry": {"type": "Point", "coordinates": [-71.90035, 41.94343]}}, {"type": "Feature", "properties": {"id": "01124350", "name": "FRENCH RIVER BELOW DAM, AT HODGES VILLAGE, MA", "state": "MA", "drain_sqkm": 80.4609, "huc02": "01", "huc12": "011000010203", "has_data": false, "nsce": null, "cc": null, "rel_bias": null, "norm_bias": null, "rmse": null}, "geometry": {"type": "Point", "coordinates": [-71.88118, 42.11843]}}, {"type": "Feature", "properties": {"id": "01124500", "name": "LITTLE RIVER NEAR OXFORD, MA", "state": "MA", "drain_sqkm": 72.5976, "huc02": "01", "huc12": "011000010202", "has_data": false, "nsce": null, "cc": null, "rel_bias": null, "norm_bias": null, "rmse": null}, "geometry": {"type": "Point", "coordinates": [-71.89007, 42.11593]}}, {"type": "Feature", "properties": {"id": "01125000", "name": "FRENCH RIVER AT WEBSTER, MA", "state": "MA", "drain_sqkm": 222.2319, "huc02": "01", "huc12": "011000010203", "has_data": false, "nsce": null, "cc": null, "rel_bias": null, "norm_bias": null, "rmse": null}, "geometry": {"type": "Point", "coordinates": [-71.88507, 42.05093]}}, {"type": "Feature", "properties": {"id": "01125100", "name": "FRENCH R AT N GROSVENORDALE, CT.", "state": "CT", "drain_sqkm": 262.3277, "huc02": "01", "huc12": "011000010204", "has_data": true, "nsce": 0.42479, "cc": 0.62422, "rel_bias": 74.51345, "norm_bias": 10.90758, "rmse": 4.09163}, "geometry": {"type": "Point", "coordinates": [-71.90035, 41.97815]}}, {"type": "Feature", "properties": {"id": "01125500", "name": "QUINEBAUG RIVER AT PUTNAM, CT", "state": "CT", "drain_sqkm": 839.9187, "huc02": "01", "huc12": "011000010403", "has_data": true, "nsce": 0.33502, "cc": 0.52823, "rel_bias": 50.04312, "norm_bias": 3.82684, "rmse": 15.04718}, "geometry": {"type": "Point", "coordinates": [-71.91285, 41.90926]}}, {"type": "Feature", "properties": {"id": "01126000", "name": "FIVEMILE R AT KILLINGLY, CT.", "state": "CT", "drain_sqkm": 150.3765, "huc02": "01", "huc12": "011000010302", "has_data": false, "nsce": null, "cc": null, "rel_bias": null, "norm_bias": null, "rmse": null}, "geometry": {"type": "Point", "coordinates": [-71.88535, 41.83732]}}, {"type": "Feature", "properties": {"id": "01126500", "name": "MOOSUP R AT MOOSUP, CT.", "state": "CT", "drain_sqkm": 211.5153, "huc02": "01", "huc12": "011000010503", "has_data": false, "nsce": null, "cc": null, "rel_bias": null, "norm_bias": null, "rmse": null}, "geometry": {"type": "Point", "coordinates": [-71.88591, 41.71038]}}, {"type": "Feature", "properties": {"id": "01127000", "name": "QUINEBAUG RIVER AT JEWETT CITY, CT.", "state": "CT", "drain_sqkm": 1838.699, "huc02": "01", "huc12": "011000010704", "has_data": true, "nsce": 0.44194, "cc": 0.58509, "rel_bias": 67.57276, "norm_bias": 10.2926, "rmse": 28.52707}, "geometry": {"type": "Point", "coordinates": [-71.98424, 41.59788]}}, {"type": "Feature", "properties": {"id": "01127500", "name": "YANTIC RIVER AT YANTIC, CT.", "state": "CT", "drain_sqkm": 230.7345, "huc02": "01", "huc12": "011000030103", "has_data": true, "nsce": 0.4042, "cc": 0.59163, "rel_bias": 54.59673, "norm_bias": -17.5949, "rmse": 5.74128}, "geometry": {"type": "Point", "coordinates": [-72.12147, 41.55871]}}, {"type": "Feature", "properties": {"id": "01127880", "name": "BIG BROOK NEAR PITTSBURG, NH", "state": "NH", "drain_sqkm": 16.9623, "huc02": "01", "huc12": "010801010102", "has_data": false, "nsce": null, "cc": null, "rel_bias": null, "norm_bias": null, "rmse": null}, "geometry": {"type": "Point", "coordinates": [-71.20591, 45.13505]}}, {"type": "Feature", "properties": {"id": "01128500", "name": "CONNECTICUT R AT FIRST CONN LK NR PITTSBURG, NH", "state": "NH", "drain_sqkm": 215.6517, "huc02": "01", "huc12": "010801010104", "has_data": false, "nsce": null, "cc": null, "rel_bias": null, "norm_bias": null, "rmse": null}, "geometry": {"type": "Point", "coordinates": [-71.2923, 45.08727]}}, {"type": "Feature", "properties": {"id": "01129200", "name": "CONNECTICUT R BELOW INDIAN STREAM NR PITTSBURG, NH", "state": "NH", "drain_sqkm": 658.7442, "huc02": "01", "huc12": "010801010203", "has_data": true, "nsce": -0.16581, "cc": 0.25269, "rel_bias": -31.24472, "norm_bias": -26.34054, "rmse": 15.17746}, "geometry": {"type": "Point", "coordinates": [-71.44397, 45.04032]}}, {"type": "Feature", "properties": {"id": "01130000", "name": "UPPER AMMONOOSUC RIVER NEAR GROVETON, NH", "state": "NH", "drain_sqkm": 597.9547, "huc02": "01", "huc12": "010801010707", "has_data": true, "nsce": 0.1024, "cc": 0.50457, "rel_bias": 36.48208, "norm_bias": -2.32112, "rmse": 27.64336}, "geometry": {"type": "Point", "coordinates": [-71.46897, 44.62505]}}, {"type": "Feature", "properties": {"id": "01133000", "name": "EAST BRANCH PASSUMPSIC RIVER NEAR EAST HAVEN, VT", "state": "VT", "drain_sqkm": 138.3021, "huc02": "01", "huc12": "010801020102", "has_data": false, "nsce": null, "cc": null, "rel_bias": null, "norm_bias": null, "rmse": null}, "geometry": {"type": "Point", "coordinates": [-71.89759, 44.63394]}}, {"type": "Feature", "properties": {"id": "01134500", "name": "MOOSE RIVER AT VICTORY, VT", "state": "VT", "drain_sqkm": 195.1299, "huc02": "01", "huc12": "010801020202", "has_data": true, "nsce": -0.3696, "cc": 0.03058, "rel_bias": -99.41694, "norm_bias": -98.85022, "rmse": 12.87813}, "geometry": {"type": "Point", "coordinates": [-71.83731, 44.51172]}}, {"type": "Feature", "properties": {"id": "01135000", "name": "MOOSE RIVER AT ST. JOHNSBURY, VT", "state": "VT", "drain_sqkm": 334.305, "huc02": "01", "huc12": "010801020203", "has_data": false, "nsce": null, "cc": null, "rel_bias": null, "norm_bias": null, "rmse": null}, "geometry": {"type": "Point", "coordinates": [-72.00009, 44.42284]}}, {"type": "Feature", "properties": {"id": "01135150", "name": "POPE BROOK (SITE W-3) NEAR NORTH DANVILLE, VT", "state": "VT", "drain_sqkm": 10.1016, "huc02": "01", "huc12": "010801020401", "has_data": false, "nsce": null, "cc": null, "rel_bias": null, "norm_bias": null, "rmse": null}, "geometry": {"type": "Point", "coordinates": [-72.12454, 44.47617]}}, {"type": "Feature", "properties": {"id": "01135300", "name": "SLEEPERS RIVER (SITE W-5) NEAR ST. JOHNSBURY, VT", "state": "VT", "drain_sqkm": 111.1173, "huc02": "01", "huc12": "010801020401", "has_data": false, "nsce": null, "cc": null, "rel_bias": null, "norm_bias": null, "rmse": null}, "geometry": {"type": "Point", "coordinates": [-72.03843, 44.43534]}}, {"type": "Feature", "properties": {"id": "01135500", "name": "PASSUMPSIC RIVER AT PASSUMPSIC, VT", "state": "VT", "drain_sqkm": 1124.902, "huc02": "01", "huc12": "010801020403", "has_data": true, "nsce": 0.10051, "cc": 0.4219, "rel_bias": -4.7308, "norm_bias": -17.8626, "rmse": 42.89853}, "geometry": {"type": "Point", "coordinates": [-72.03926, 44.36561]}}, {"type": "Feature", "properties": {"id": "01137500", "name": "AMMONOOSUC RIVER AT BETHLEHEM JUNCTION, NH", "state": "NH", "drain_sqkm": 228.5543, "huc02": "01", "huc12": "010801030402", "has_data": true, "nsce": 0.17133, "cc": 0.50658, "rel_bias": 2.77809, "norm_bias": -22.28855, "rmse": 9.88473}, "geometry": {"type": "Point", "coordinates": [-71.63036, 44.26867]}}, {"type": "Feature", "properties": {"id": "01138000", "name": "AMMONOOSUC RIVER NEAR BATH, NH", "state": "NH", "drain_sqkm": 1026.288, "huc02": "01", "huc12": "010801030506", "has_data": false, "nsce": null, "cc": null, "rel_bias": null, "norm_bias": null, "rmse": null}, "geometry": {"type": "Point", "coordinates": [-71.98565, 44.15395]}}, {"type": "Feature", "properties": {"id": "01139000", "name": "WELLS RIVER AT WELLS RIVER, VT", "state": "VT", "drain_sqkm": 246.3333, "huc02": "01", "huc12": "010801030602", "has_data": true, "nsce": 0.11981, "cc": 0.43764, "rel_bias": 25.13384, "norm_bias": -9.91017, "rmse": 7.95501}, "geometry": {"type": "Point", "coordinates": [-72.06509, 44.15034]}}, {"type": "Feature", "properties": {"id": "01139800", "name": "EAST ORANGE BRANCH AT EAST ORANGE, VT", "state": "VT", "drain_sqkm": 22.7997, "huc02": "01", "huc12": "010801040102", "has_data": false, "nsce": null, "cc": null, "rel_bias": null, "norm_bias": null, "rmse": null}, "geometry": {"type": "Point", "coordinates": [-72.33565, 44.09284]}}, {"type": "Feature", "properties": {"id": "01141500", "name": "OMPOMPANOOSUC RIVER AT UNION VILLAGE, VT", "state": "VT", "drain_sqkm": 338.4513, "huc02": "01", "huc12": "010801040304", "has_data": false, "nsce": null, "cc": null, "rel_bias": null, "norm_bias": null, "rmse": null}, "geometry": {"type": "Point", "coordinates": [-72.25481, 43.79007]}}, {"type": "Feature", "properties": {"id": "01141800", "name": "MINK BROOK NEAR ETNA, NH", "state": "NH", "drain_sqkm": 12.2805, "huc02": "01", "huc12": "010801040401", "has_data": false, "nsce": null, "cc": null, "rel_bias": null, "norm_bias": null, "rmse": null}, "geometry": {"type": "Point", "coordinates": [-72.18703, 43.70229]}}, {"type": "Feature", "properties": {"id": "01142500", "name": "AYERS BROOK AT RANDOLPH, VT", "state": "VT", "drain_sqkm": 82.16668, "huc02": "01", "huc12": "010801050202", "has_data": false, "nsce": null, "cc": null, "rel_bias": null, "norm_bias": null, "rmse": null}, "geometry": {"type": "Point", "coordinates": [-72.65788, 43.93451]}}, {"type": "Feature", "properties": {"id": "01144000", "name": "WHITE RIVER AT WEST HARTFORD, VT", "state": "VT", "drain_sqkm": 1790.244, "huc02": "01", "huc12": "010801050502", "has_data": true, "nsce": 0.1823, "cc": 0.53981, "rel_bias": 15.36259, "norm_bias": -14.95204, "rmse": 55.69481}, "geometry": {"type": "Point", "coordinates": [-72.41815, 43.71424]}}, {"type": "Feature", "properties": {"id": "01145000", "name": "MASCOMA RIVER AT WEST CANAAN, NH", "state": "NH", "drain_sqkm": 208.1349, "huc02": "01", "huc12": "010801060105", "has_data": false, "nsce": null, "cc": null, "rel_bias": null, "norm_bias": null, "rmse": null}, "geometry": {"type": "Point", "coordinates": [-72.08481, 43.65118]}}, {"type": "Feature", "properties": {"id": "01150500", "name": "MASCOMA RIVER AT MASCOMA, NH", "state": "NH", "drain_sqkm": 397.6794, "huc02": "01", "huc12": "010801060106", "has_data": false, "nsce": null, "cc": null, "rel_bias": null, "norm_bias": null, "rmse": null}, "geometry": {"type": "Point", "coordinates": [-72.18203, 43.64896]}}, {"type": "Feature", "properties": {"id": "01150900", "name": "OTTAUQUECHEE RIVER NEAR WEST BRIDGEWATER, VT", "state": "VT", "drain_sqkm": 61.1667, "huc02": "01", "huc12": "010801060201", "has_data": false, "nsce": null, "cc": null, "rel_bias": null, "norm_bias": null, "rmse": null}, "geometry": {"type": "Point", "coordinates": [-72.75899, 43.62229]}}, {"type": "Feature", "properties": {"id": "01151500", "name": "OTTAUQUECHEE RIVER AT NORTH HARTLAND, VT", "state": "VT", "drain_sqkm": 576.1521, "huc02": "01", "huc12": "010801060207", "has_data": true, "nsce": 0.12208, "cc": 0.41418, "rel_bias": 158.62041, "norm_bias": 0.16398, "rmse": 18.39445}, "geometry": {"type": "Point", "coordinates": [-72.35426, 43.60257]}}, {"type": "Feature", "properties": {"id": "01152500", "name": "SUGAR RIVER AT WEST CLAREMONT, NH", "state": "NH", "drain_sqkm": 700.3791, "huc02": "01", "huc12": "010801060407", "has_data": true, "nsce": 0.18309, "cc": 0.44571, "rel_bias": 131.12029, "norm_bias": 6.39766, "rmse": 12.94796}, "geometry": {"type": "Point", "coordinates": [-72.36203, 43.38757]}}, {"type": "Feature", "properties": {"id": "01153000", "name": "BLACK RIVER AT NORTH SPRINGFIELD, VT", "state": "VT", "drain_sqkm": 411.5781, "huc02": "01", "huc12": "010801060505", "has_data": true, "nsce": 0.22435, "cc": 0.48716, "rel_bias": 97.8689, "norm_bias": -0.49255, "rmse": 12.01198}, "geometry": {"type": "Point", "coordinates": [-72.51481, 43.33341]}}, {"type": "Feature", "properties": {"id": "01153500", "name": "WILLIAMS RIVER AT BROCKWAYS MILLS, VT", "state": "VT", "drain_sqkm": 263.3301, "huc02": "01", "huc12": "010801060603", "has_data": false, "nsce": null, "cc": null, "rel_bias": null, "norm_bias": null, "rmse": null}, "geometry": {"type": "Point", "coordinates": [-72.51759, 43.20869]}}, {"type": "Feature", "properties": {"id": "01153550", "name": "WILLIAMS RIVER NEAR ROCKINGHAM VT", "state": "VT", "drain_sqkm": 289.5507, "huc02": "01", "huc12": "010801060603", "has_data": true, "nsce": 0.11066, "cc": 0.41222, "rel_bias": 68.94959, "norm_bias": -13.03513, "rmse": 8.8488}, "geometry": {"type": "Point", "coordinates": [-72.48509, 43.19174]}}, {"type": "Feature", "properties": {"id": "01154000", "name": "SAXTONS RIVER AT SAXTONS RIVER, VT", "state": "VT", "drain_sqkm": 187.3278, "huc02": "01", "huc12": "010801070102", "has_data": false, "nsce": null, "cc": null, "rel_bias": null, "norm_bias": null, "rmse": null}, "geometry": {"type": "Point", "coordinates": [-72.48814, 43.13758]}}, {"type": "Feature", "properties": {"id": "01154500", "name": "CONNECTICUT RIVER AT NORTH WALPOLE, NH", "state": "NH", "drain_sqkm": 14220.09, "huc02": "01", "huc12": "010801070501", "has_data": true, "nsce": -0.19938, "cc": -0.3985, "rel_bias": 98.61468, "norm_bias": 3.56992, "rmse": 369.94789}, "geometry": {"type": "Point", "coordinates": [-72.43676, 43.12619]}}, {"type": "Feature", "properties": {"id": "01155000", "name": "COLD RIVER AT DREWSVILLE, NH", "state": "NH", "drain_sqkm": 215.4186, "huc02": "01", "huc12": "010801070203", "has_data": false, "nsce": null, "cc": null, "rel_bias": null, "norm_bias": null, "rmse": null}, "geometry": {"type": "Point", "coordinates": [-72.39037, 43.13174]}}, {"type": "Feature", "properties": {"id": "01155500", "name": "WEST RIVER AT JAMAICA, VT", "state": "VT", "drain_sqkm": 459.8118, "huc02": "01", "huc12": "010801070305", "has_data": true, "nsce": 0.23344, "cc": 0.51602, "rel_bias": 124.99004, "norm_bias": 1.36364, "rmse": 18.64395}, "geometry": {"type": "Point", "coordinates": [-72.77537, 43.10897]}}, {"type": "Feature", "properties": {"id": "01155910", "name": "WEST RIVER BELOW TOWNSHEND DAM NEAR TOWNSHEND, VT", "state": "VT", "drain_sqkm": 723.2805, "huc02": "01", "huc12": "010801070402", "has_data": false, "nsce": null, "cc": null, "rel_bias": null, "norm_bias": null, "rmse": null}, "geometry": {"type": "Point", "coordinates": [-72.70009, 43.05119]}}, {"type": "Feature", "properties": {"id": "01156000", "name": "WEST RIVER AT NEWFANE, VT", "state": "VT", "drain_sqkm": 792.0675, "huc02": "01", "huc12": "010801070402", "has_data": false, "nsce": null, "cc": null, "rel_bias": null, "norm_bias": null, "rmse": null}, "geometry": {"type": "Point", "coordinates": [-72.63648, 42.99536]}}, {"type": "Feature", "properties": {"id": "01156500", "name": "CONNECTICUT RIVER AT VERNON, VT", "state": "VT", "drain_sqkm": 16213.36, "huc02": "01", "huc12": "010802010501", "has_data": false, "nsce": null, "cc": null, "rel_bias": null, "norm_bias": null, "rmse": null}, "geometry": {"type": "Point", "coordinates": [-72.51426, 42.77147]}}, {"type": "Feature", "properties": {"id": "01157000", "name": "ASHUELOT RIVER NEAR GILSUM, NH", "state": "NH", "drain_sqkm": 182.5785, "huc02": "01", "huc12": "010802010103", "has_data": false, "nsce": null, "cc": null, "rel_bias": null, "norm_bias": null, "rmse": null}, "geometry": {"type": "Point", "coordinates": [-72.27009, 43.03925]}}, {"type": "Feature", "properties": {"id": "01158000", "name": "ASHUELOT RIVER BELOW SURRY MT DAM, NEAR KEENE, NH", "state": "NH", "drain_sqkm": 263.925, "huc02": "01", "huc12": "010802010301", "has_data": true, "nsce": 0.11017, "cc": 0.4172, "rel_bias": 271.15173, "norm_bias": 12.86033, "rmse": 5.89173}, "geometry": {"type": "Point", "coordinates": [-72.3112, 42.9948]}}, {"type": "Feature", "properties": {"id": "01158600", "name": "OTTER BROOK BELOW OTTER BROOK DAM, NEAR KEENE, NH", "state": "NH", "drain_sqkm": 122.3955, "huc02": "01", "huc12": "010802010202", "has_data": false, "nsce": null, "cc": null, "rel_bias": null, "norm_bias": null, "rmse": null}, "geometry": {"type": "Point", "coordinates": [-72.23675, 42.94591]}}, {"type": "Feature", "properties": {"id": "01160000", "name": "S BR ASHUELOT RIVER AT WEBB, NR MARLBOROUGH, NH", "state": "NH", "drain_sqkm": 92.916, "huc02": "01", "huc12": "010802010303", "has_data": false, "nsce": null, "cc": null, "rel_bias": null, "norm_bias": null, "rmse": null}, "geometry": {"type": "Point", "coordinates": [-72.2137, 42.87203]}}, {"type": "Feature", "properties": {"id": "01160350", "name": "ASHUELOT RIVER AT WEST SWANZEY, NH", "state": "NH", "drain_sqkm": 818.0181, "huc02": "01", "huc12": "010802010401", "has_data": true, "nsce": 0.38956, "cc": 0.4896, "rel_bias": 108.5988, "norm_bias": 15.38785, "rmse": 12.85608}, "geometry": {"type": "Point", "coordinates": [-72.32786, 42.87119]}}, {"type": "Feature", "properties": {"id": "01161000", "name": "ASHUELOT RIVER AT HINSDALE, NH", "state": "NH", "drain_sqkm": 1089.694, "huc02": "01", "huc12": "010802010403", "has_data": true, "nsce": 0.32897, "cc": 0.47505, "rel_bias": 104.61126, "norm_bias": 11.43713, "rmse": 16.97418}, "geometry": {"type": "Point", "coordinates": [-72.4862, 42.78592]}},